,Year,Full Date,Date,Start Month,City,Country,Lat,Lng,Max Temp,Disaster Group,Disaster Subgroup,Disaster Type,Region,Continent,Total Deaths
0,1979,9/10/1979,1693825717,10,bamboo flat,IN,11.7,92.7167,28.05,Natural,Geophysical,Earthquake,Central America,Americas,
54,1979,12/09/1979,1693825735,9,manokwari,ID,-0.8667,134.0833,26.02,Natural,Geophysical,Earthquake,South-Eastern Asia,Asia,2
65,1979,14/03/1979,1693825738,3,loei,TH,17.4167,101.5,21.87,Natural,Geophysical,Earthquake,Central America,Americas,5
139,1979,24/05/1979,1693825764,5,budva,ME,42.2864,18.84,26.97,Natural,Geophysical,Earthquake,Southern Europe,Europe,
2214,1979,18/07/1979,1693826430,7,dursunbey,TR,39.586,28.6257,27.3,Natural,Geophysical,Earthquake,Western Asia,Asia,
138,1979,15/04/1979,1693825718,4,bar,UA,49.0772,27.6826,14.42,Natural,Geophysical,Earthquake,Southern Europe,Europe,121
64,1979,12/09/1979,1693825631,9,zafferana etnea,IT,37.6822,15.108,29.33,Natural,Geophysical,Volcanic activity,Southern Europe,Europe,9
63,1979,19/09/1979,1693825738,9,spoleto,IT,42.7448,12.7374,27.75,Natural,Geophysical,Earthquake,Southern Europe,Europe,5
62,1979,27/11/1979,1693825737,11,qa'en,IR,33.7265,59.1844,28.25,Natural,Geophysical,Earthquake,Southern Asia,Asia,16
66,1979,16/02/1979,1693825739,2,malvan,IN,16.0667,73.4667,27.35,Natural,Geophysical,Earthquake,South America,Americas,13
61,1979,14/11/1979,1693825737,11,qa'en,IR,33.7265,59.1844,28.25,Natural,Geophysical,Earthquake,Southern Asia,Asia,350
59,1979,18/12/1979,1693825736,12,balabac,PH,7.9868,117.0645,28.34,Natural,Geophysical,Earthquake,South-Eastern Asia,Asia,32
58,1979,15/12/1979,1693825736,12,temerluh,MY,3.4506,102.4176,28.32,Natural,Geophysical,Earthquake,South-Eastern Asia,Asia,5
57,1979,2/11/1979,1693825689,11,vung tau,VN,10.346,107.0843,27.94,Natural,Geophysical,Earthquake,South-Eastern Asia,Asia,26
56,1979,30/05/1979,1693825736,5,balabac,PH,7.9868,117.0645,28.34,Natural,Geophysical,Earthquake,South-Eastern Asia,Asia,34
55,1979,18/07/1979,1693825735,7,dapitan,PH,8.6464,123.4208,27.89,Natural,Geophysical,Earthquake,South-Eastern Asia,Asia,539
6,1979,16/10/1979,1693825719,10,nice,FR,44,7.25,24.49,Natural,Geophysical,Earthquake,Western Europe,Europe,11
5,1979,23/11/1979,1693825507,11,male,MV,4.1748,73.5089,28.33,Natural,Geophysical,Earthquake,South America,Americas,60
3,1979,9/07/1979,1693825697,7,licheng,CN,23.2955,113.8284,28.27,Natural,Geophysical,Earthquake,Eastern Asia,Asia,42
2,1979,15/04/1979,1693825718,4,bar,UA,49.0772,27.6826,14.42,Natural,Geophysical,Earthquake,Southern Europe,Europe,35
60,1979,16/01/1979,1693825737,1,qa'en,IR,33.7265,59.1844,28.25,Natural,Geophysical,Earthquake,Southern Asia,Asia,199
140,1980,18/05/1980,1693825764,5,leposaviq,XK,43.1039,20.8028,15.61,Natural,Geophysical,Earthquake,Southern Europe,Europe,
141,1980,26/11/1980,1693825523,11,dhidhdhoo,MV,6.8833,73.1,28,Natural,Geophysical,Earthquake,South America,Americas,
67,1980,24/08/1980,1693825739,8,bhadarwah,IN,32.9833,75.7167,25.05,Natural,Geophysical,Earthquake,Southern Asia,Asia,13
71,1980,23/11/1980,1693825740,11,melfi,IT,40.9965,15.6514,24.86,Natural,Geophysical,Earthquake,Southern Europe,Europe,4689
69,1980,22/12/1980,1693825740,12,qom,IR,34.6401,50.8764,37.73,Natural,Geophysical,Earthquake,Southern Asia,Asia,4
72,1980,25/09/1980,1693825741,9,kisarazu,JP,35.3747,139.9225,28.36,Natural,Geophysical,Earthquake,Eastern Asia,Asia,2
73,1980,9/06/1980,1693825741,6,dingcheng,CN,32.1272,115.0394,24.37,Natural,Geophysical,Earthquake,Central America,Americas,2
74,1980,24/10/1980,1693825742,10,chom thong,TH,18.4174,98.6743,30.05,Natural,Geophysical,Earthquake,Central America,Americas,65
75,1980,29/07/1980,1693825742,7,dipayal,NP,29.2608,80.94,32.38,Natural,Geophysical,Earthquake,Southern Asia,Asia,100
76,1980,12/11/1980,1693825742,11,malpe,IN,13.35,74.7167,28.61,Natural,Geophysical,Earthquake,South America,Americas,7
7,1980,10/10/1980,1693825720,10,chlef,DZ,36.1652,1.3345,37.23,Natural,Geophysical,Earthquake,Northern Africa,Africa,2633
8,1980,1/01/1980,1693825570,1,akhisar,TR,38.9185,27.8401,31.57,Natural,Geophysical,Earthquake,Southern Europe,Europe,69
68,1980,19/12/1980,1693825739,12,qom,IR,34.6401,50.8764,37.73,Natural,Geophysical,Earthquake,Southern Asia,Asia,20
10,1980,12/07/1980,1693825721,7,almyros,GR,39.1822,22.7594,19.7,Natural,Geophysical,Earthquake,Southern Europe,Europe,1
83,1981,24/10/1981,1693825745,10,nam som,TH,17.7704,102.1895,31.61,Natural,Geophysical,Earthquake,Central America,Americas,3
79,1981,11/06/1981,1693825743,6,kerman,IR,30.2832,57.0788,31.67,Natural,Geophysical,Earthquake,Southern Asia,Asia,2000
81,1981,7/06/1981,1693825744,6,petrosino,IT,37.7077,12.4999,28.81,Natural,Geophysical,Earthquake,Southern Europe,Europe,
80,1981,28/07/1981,1693825744,7,kerman,IR,30.2832,57.0788,31.67,Natural,Geophysical,Earthquake,Southern Asia,Asia,1200
78,1981,12/09/1981,1693825743,9,gilgit,PK,35.9221,74.3087,30.37,Natural,Geophysical,Earthquake,Southern Asia,Asia,250
77,1981,19/01/1981,1693825743,1,colonia,DE,50.9333,6.95,25.32,Natural,Geophysical,Earthquake,South-Eastern Asia,Asia,306
82,1981,14/02/1981,1693825741,2,cervinara,IT,41.0204,14.6144,27.28,Natural,Geophysical,Earthquake,Southern Europe,Europe,12
86,1981,18/04/1981,1693825746,4,malpe,IN,13.35,74.7167,28.61,Natural,Geophysical,Earthquake,South America,Americas,8
85,1981,22/06/1981,1693825742,6,malpe,IN,13.35,74.7167,28.61,Natural,Geophysical,Earthquake,South America,Americas,10
11,1981,18/10/1981,1693825721,10,dhidhdhoo,MV,6.8833,73.1,28,Natural,Geophysical,Earthquake,South America,Americas,10
12,1981,10/03/1981,1693825721,3,anatoli,GR,39.6389,20.8653,18.29,Natural,Geophysical,Earthquake,Southern Europe,Europe,2
13,1981,24/01/1981,1693825721,1,kangding,CN,30.0513,101.9603,16.06,Natural,Geophysical,Earthquake,Eastern Asia,Asia,150
14,1981,24/02/1981,1693825722,2,livadeia,GR,38.435,22.8739,24.73,Natural,Geophysical,Earthquake,Southern Europe,Europe,22
84,1981,12/12/1981,1693825745,12,mastung,PK,29.7994,66.845,32.7,Natural,Geophysical,Earthquake,Southern Asia,Asia,6
142,1981,13/08/1981,1693825765,8,laktasi,BA,44.9081,17.3008,23.92,Natural,Geophysical,Earthquake,Southern Europe,Europe,
89,1982,21/03/1982,1693825515,3,shizunai-furukawacho,JP,42.3339,142.3669,22.66,Natural,Geophysical,Earthquake,Eastern Asia,Asia,110
15,1982,16/12/1982,1693825722,12,nahrin,AF,36.0649,69.1334,28.77,Natural,Geophysical,Earthquake,Southern Asia,Asia,500
16,1982,16/11/1982,1693825717,11,lushnje,AL,40.9419,19.705,29.34,Natural,Geophysical,Earthquake,Southern Europe,Europe,1
17,1982,16/06/1982,1693825723,6,kangding,CN,30.0513,101.9603,16.06,Natural,Geophysical,Earthquake,Eastern Asia,Asia,10
18,1982,27/04/1982,1693825723,4,narasannapeta,IN,18.4167,84.05,29.48,Natural,Geophysical,Earthquake,Central America,Americas,
2156,1982,27/03/1982,1693826362,3,pathein,MM,16.7833,94.7333,25.96,Natural,Geophysical,Earthquake,Central America,Americas,10
90,1982,17/10/1982,1693825700,10,bastia umbra,IT,43.0679,12.5456,28.6,Natural,Geophysical,Earthquake,Southern Europe,Europe,
143,1982,19/06/1982,1693825732,6,bamboo flat,IN,11.7,92.7167,28.05,Natural,Geophysical,Earthquake,Central America,Americas,20
144,1982,13/12/1982,1693825637,12,dhamar,YE,14.5427,44.4051,25.76,Natural,Geophysical,Earthquake,Western Asia,Asia,1507
88,1982,24/02/1982,1693825713,2,langsa,ID,4.4683,97.9683,25.44,Natural,Geophysical,Earthquake,South-Eastern Asia,Asia,
87,1982,25/12/1982,1693825746,12,ponot,PH,8.452,123.0222,27.72,Natural,Geophysical,Earthquake,South-Eastern Asia,Asia,13
92,1982,28/03/1982,1693825748,3,konanur,IN,12.6264,76.0542,24.54,Natural,Geophysical,Earthquake,South America,Americas,3
93,1982,4/06/1982,1693825573,6,rybnik,PL,50.0971,18.5418,20.99,Natural,Geophysical,Earthquake,Eastern Europe,Europe,
102,1983,22/12/1983,1693825751,12,weno,FM,7.4515,151.8468,26.97,Natural,Geophysical,Earthquake,Melanesia,Oceania,10
2248,1983,25/10/1983,1693826440,10,palu,ID,-0.8917,119.8707,25.13,Natural,Geophysical,Earthquake,South-Eastern Asia,Asia,2
96,1983,8/08/1983,1693825749,8,uenohara,JP,35.6167,139.1167,26.38,Natural,Geophysical,Earthquake,Eastern Asia,Asia,1
97,1983,26/05/1983,1693825750,5,noshiro,JP,40.2039,140.0242,25.57,Natural,Geophysical,Earthquake,Eastern Asia,Asia,102
98,1983,3/04/1983,1693825750,4,sabang,ID,5.8933,95.3214,26.41,Natural,Geophysical,Earthquake,South-Eastern Asia,Asia,
99,1983,22/07/1983,1693825750,7,fuman,IR,37.2273,49.3142,29.72,Natural,Geophysical,Earthquake,Southern Asia,Asia,3
150,1983,25/02/1983,1693825767,2,dracevo,HR,42.8585,18.0672,25.11,Natural,Geophysical,Earthquake,Southern Europe,Europe,12
149,1983,28/10/1983,1693825543,10,erenhot,CN,43.6475,111.9767,28.15,Natural,Geophysical,Earthquake,Northern America,Americas,2
148,1983,2/05/1983,1693825766,5,qingdao,CN,36.0986,120.3719,25.31,Natural,Geophysical,Earthquake,Northern America,Americas,
147,1983,30/10/1983,1693825766,10,oltu,TR,40.5498,42.0013,31.1,Natural,Geophysical,Earthquake,Western Asia,Asia,1346
146,1983,2/04/1983,1693825766,4,masally,AZ,39,48.6667,28.96,Natural,Geophysical,Earthquake,Russian Federation,Europe,
145,1983,16/11/1983,1693825765,11,saipan,MP,15.1355,145.701,28.39,Natural,Geophysical,Earthquake,Northern America,Americas,
100,1983,19/09/1983,1693825751,9,anacapri,IT,40.5558,14.2136,27.56,Natural,Geophysical,Earthquake,Southern Europe,Europe,
101,1983,12/04/1983,1693825751,4,ambalangoda,LK,6.2355,80.0538,25.02,Natural,Geophysical,Earthquake,South America,Americas,10
103,1983,15/10/1983,1693825751,10,weno,FM,7.4515,151.8468,26.97,Natural,Geophysical,Volcanic activity,Melanesia,Oceania,
95,1983,26/03/1983,1693825749,3,damavand,IR,35.7178,52.065,28.69,Natural,Geophysical,Earthquake,Southern Asia,Asia,30
94,1983,18/08/1983,1693825749,8,dingras,PH,18.1032,120.6967,26.86,Natural,Geophysical,Earthquake,South-Eastern Asia,Asia,19
2249,1983,9/11/1983,1693826441,11,traversetolo,IT,44.6422,10.3772,28.42,Natural,Geophysical,Earthquake,Southern Europe,Europe,
27,1983,24/03/1983,1693825726,3,argostolion,GR,38.1811,20.489,27.64,Natural,Geophysical,Earthquake,Southern Europe,Europe,
25,1983,2/04/1983,1693825630,4,batticaloa,LK,7.7102,81.6924,27.58,Natural,Geophysical,Earthquake,Central America,Americas,10
24,1983,31/03/1983,1693825725,3,muli,MV,2.9167,73.5667,28.52,Natural,Geophysical,Earthquake,South America,Americas,250
23,1983,7/11/1983,1693825725,11,heze,CN,35.2431,115.4411,26.82,Natural,Geophysical,Earthquake,Eastern Asia,Asia,34
22,1983,8/11/1983,1693825724,11,marchin,BE,50.4671,5.2428,24.45,Natural,Geophysical,Earthquake,Western Europe,Europe,2
21,1983,31/12/1983,1693825724,12,jurm,AF,36.8648,70.8342,25.31,Natural,Geophysical,Earthquake,Southern Asia,Asia,12
26,1983,22/12/1983,1693825725,12,konduga,NG,11.6558,13.4213,29.63,Natural,Geophysical,Earthquake,Western Africa,Africa,443
19,1983,3/07/1983,1693825723,7,trincomalee,LK,8.5711,81.2335,28.29,Natural,Geophysical,Earthquake,Central America,Americas,2
20,1983,4/10/1983,1693825684,10,jaisalmer,IN,26.9147,70.9181,36.9,Natural,Geophysical,Earthquake,South America,Americas,4
152,1984,18/09/1984,1693825768,9,ardanuc,TR,41.1274,42.0629,33.55,Natural,Geophysical,Earthquake,Western Asia,Asia,3
28,1984,2/02/1984,1693825648,2,jalalabad,AF,34.4265,70.4515,38.14,Natural,Geophysical,Earthquake,Southern Asia,Asia,1
112,1984,17/02/1984,1693825754,2,basawul,AF,34.2475,70.8722,38.37,Natural,Geophysical,Earthquake,Southern Asia,Asia,4
111,1984,20/10/1984,1693825579,10,carlentini,IT,37.2696,15.0126,32.19,Natural,Geophysical,Earthquake,Southern Europe,Europe,1
110,1984,7/05/1984,1693825456,5,celano,IT,42.0855,13.5398,22.01,Natural,Geophysical,Earthquake,Southern Europe,Europe,3
109,1984,29/04/1984,1693825754,4,gubbio,IT,43.3545,12.5725,25.69,Natural,Geophysical,Earthquake,Southern Europe,Europe,3
108,1984,31/12/1984,1693825753,12,dharmanagar,IN,24.3667,92.1667,31.35,Natural,Geophysical,Earthquake,Southern Asia,Asia,20
153,1984,18/10/1984,1693825768,10,sarikamis,TR,40.3381,42.5731,25.68,Natural,Geophysical,Earthquake,Western Asia,Asia,3
107,1984,27/08/1984,1693825753,8,sibolga,ID,1.7427,98.7792,25.24,Natural,Geophysical,Earthquake,South-Eastern Asia,Asia,
105,1984,6/08/1984,1693825686,8,honmachi,JP,32.5,130.6,27.86,Natural,Geophysical,Earthquake,Eastern Asia,Asia,
104,1984,14/09/1984,1693825711,9,ueda,JP,36.4,138.2667,25.56,Natural,Geophysical,Earthquake,Eastern Asia,Asia,20
151,1984,20/03/1984,1693825767,3,gazli,UZ,40.1333,63.45,29.21,Natural,Geophysical,Earthquake,Russian Federation,Europe,
106,1984,8/01/1984,1693825753,1,tarakan,ID,3.3,117.6333,28.72,Natural,Geophysical,Earthquake,South-Eastern Asia,Asia,2
31,1985,18/04/1985,1693825521,4,kunming,CN,25.0389,102.7183,20.74,Natural,Geophysical,Earthquake,Eastern Asia,Asia,22
157,1985,28/09/1985,1693825769,9,konce,MK,41.4958,22.385,15.69,Natural,Geophysical,Earthquake,Southern Europe,Europe,
156,1985,7/11/1985,1693825768,11,sarikamis,TR,40.3381,42.5731,25.68,Natural,Geophysical,Earthquake,Western Asia,Asia,
155,1985,14/10/1985,1693825769,10,buston,TJ,40.2342,69.6948,26.1,Natural,Geophysical,Earthquake,Russian Federation,Europe,29
154,1985,29/07/1985,1693825756,7,jurm,AF,36.8648,70.8342,25.31,Natural,Geophysical,Earthquake,Russian Federation,Europe,
29,1985,26/01/1985,1693825726,1,zarghun shahr,AF,32.8473,68.4457,30.08,Natural,Geophysical,Earthquake,South America,Americas,6
30,1985,3/03/1985,1693825727,3,jand,PK,33.4299,72.0193,38.42,Natural,Geophysical,Earthquake,South America,Americas,180
32,1985,23/08/1985,1693825727,8,kashgar,CN,39.4547,75.9797,31.23,Natural,Geophysical,Earthquake,Eastern Asia,Asia,67
33,1985,27/10/1985,1693825728,10,didouche mourad,DZ,36.4525,6.6364,36.12,Natural,Geophysical,Earthquake,Northern Africa,Africa,30
113,1985,15/09/1985,1693825755,9,angaur state,PW,6.906,134.13,27.84,Natural,Geophysical,Earthquake,South-Eastern Asia,Asia,10
116,1985,29/07/1985,1693825756,7,jurm,AF,36.8648,70.8342,25.31,Natural,Geophysical,Earthquake,Southern Asia,Asia,5
118,1985,19/03/1985,1693825757,3,muricay,PH,7.8275,123.4782,26.98,Natural,Geophysical,Earthquake,South-Eastern Asia,Asia,2
119,1985,11/05/1985,1693825757,5,weno,FM,7.4515,151.8468,26.97,Natural,Geophysical,Earthquake,Melanesia,Oceania,
34,1985,11/10/1985,1693825717,10,bamboo flat,IN,11.7,92.7167,28.05,Natural,Geophysical,Earthquake,Central America,Americas,
115,1985,19/09/1985,1693825728,9,vientiane,LA,17.9667,102.6,32.18,Natural,Geophysical,Earthquake,Central America,Americas,9500
114,1985,3/02/1985,1693825755,2,firuzabad,IR,28.8438,52.5707,37.01,Natural,Geophysical,Earthquake,Southern Asia,Asia,1
120,1986,24/06/1986,1693825757,6,jayapura,ID,-2.5333,140.7,27.66,Natural,Geophysical,Earthquake,Melanesia,Oceania,
39,1986,3/02/1986,1693825728,2,pathein,MM,16.7833,94.7333,25.96,Natural,Geophysical,Earthquake,Central America,Americas,
159,1986,31/08/1986,1693825770,8,tumayr,SA,25.7039,45.868,39.99,Natural,Geophysical,Earthquake,Russian Federation,Europe,1
37,1986,20/06/1986,1693825723,6,rikaze,CN,29.25,88.8833,22.15,Natural,Geophysical,Earthquake,Eastern Asia,Asia,
36,1986,30/11/1986,1693825729,11,la passe,FR,45.5549,-0.8967,33.13,Natural,Geophysical,Earthquake,South America,Americas,1
35,1986,7/12/1986,1693825728,12,veliko turnovo,BG,43.0812,25.629,17.33,Natural,Geophysical,Earthquake,Eastern Europe,Europe,3
160,1986,13/05/1986,1693825770,5,ninotsminda,GE,41.2646,43.5916,23.39,Natural,Geophysical,Earthquake,Russian Federation,Europe,2
164,1986,18/07/1986,1693825771,7,kavaratti,IN,10.5669,72.642,26.46,Natural,Geophysical,Earthquake,South America,Americas,1
161,1986,5/05/1986,1693825770,5,dogansehir,TR,38.0919,37.8789,28.59,Natural,Geophysical,Earthquake,Western Asia,Asia,15
162,1986,11/10/1986,1693825771,10,kuyucak,TR,37.9133,28.4592,33.06,Natural,Geophysical,Earthquake,Western Asia,Asia,
163,1986,13/07/1986,1693825771,7,mingguang,CN,32.7802,117.9638,24.93,Natural,Geophysical,Earthquake,Northern America,Americas,
158,1986,10/10/1986,1693825717,10,bamboo flat,IN,11.7,92.7167,28.05,Natural,Geophysical,Earthquake,Central America,Americas,1100
38,1986,13/09/1986,1693825729,9,kalamata,GR,37.0389,22.1142,27.28,Natural,Geophysical,Earthquake,Southern Europe,Europe,20
121,1986,26/04/1986,1693825757,4,dharamsala,IN,32.2419,76.3213,23.13,Natural,Geophysical,Earthquake,Southern Asia,Asia,6
122,1986,12/07/1986,1693825758,7,nurabad,IR,34.0734,47.9725,32.08,Natural,Geophysical,Earthquake,Southern Asia,Asia,1
123,1986,20/12/1986,1693825758,12,nurabad,IR,34.0734,47.9725,32.08,Natural,Geophysical,Earthquake,Southern Asia,Asia,
124,1986,16/10/1986,1693825758,10,khuzdar,PK,27.7384,66.6434,36.35,Natural,Geophysical,Earthquake,Southern Asia,Asia,
126,1986,11/01/1986,1693825759,1,rajapalaiyam,IN,9.45,77.5667,26.86,Natural,Geophysical,Earthquake,South America,Americas,1
125,1986,5/04/1986,1693825759,4,kavaratti,IN,10.5669,72.642,26.46,Natural,Geophysical,Earthquake,South America,Americas,15
165,1987,1/10/1987,1693825772,10,suicheng,CN,33.8963,117.9331,23.34,Natural,Geophysical,Earthquake,Northern America,Americas,8
133,1987,2/03/1987,1693825648,3,petropavlovsk-kamchatsky,RU,53.0452,158.6483,9.6,Natural,Geophysical,Earthquake,Australia and New Zealand,Oceania,1
132,1987,24/11/1987,1693825761,11,fuyang,CN,32.9,115.8167,23.88,Natural,Geophysical,Earthquake,Central America,Americas,2
131,1987,17/12/1987,1693825668,12,mobara,JP,35.4167,140.3,26.99,Natural,Geophysical,Earthquake,Eastern Asia,Asia,2
130,1987,29/05/1987,1693825761,5,nahavand,IR,34.1885,48.377,33.61,Natural,Geophysical,Earthquake,Southern Asia,Asia,2
40,1987,8/08/1987,1693825730,8,kodinar,IN,20.7903,70.7031,29.19,Natural,Geophysical,Earthquake,South America,Americas,5
44,1987,2/08/1987,1693825732,8,meizhou,CN,24.2977,116.1072,24.96,Natural,Geophysical,Earthquake,Eastern Asia,Asia,
45,1987,26/01/1987,1693825720,1,chlef,DZ,36.1652,1.3345,37.23,Natural,Geophysical,Earthquake,Northern Africa,Africa,1
128,1987,9/02/1987,1693825751,2,weno,FM,7.4515,151.8468,26.97,Natural,Geophysical,Earthquake,Melanesia,Oceania,1
166,1987,24/11/1987,1693825761,11,fuyang,CN,32.9,115.8167,23.88,Natural,Geophysical,Earthquake,Northern America,Americas,
127,1987,26/11/1987,1693825759,11,linamon,PH,8.186,124.1628,27.65,Natural,Geophysical,Earthquake,South-Eastern Asia,Asia,125
50,1988,4/01/1988,1693825551,1,yinchuan,CN,38.4681,106.2731,30.85,Natural,Geophysical,Earthquake,Eastern Asia,Asia,
169,1988,7/12/1988,1693825773,12,tashir,AM,41.1207,44.2846,21.35,Natural,Geophysical,Earthquake,Russian Federation,Europe,25000
51,1988,6/11/1988,1693825441,11,jinghong,CN,21.991,100.7341,28.08,Natural,Geophysical,Earthquake,Eastern Asia,Asia,939
167,1988,8/08/1988,1693825772,8,arua,UG,3.0201,30.9111,29.21,Natural,Geophysical,Earthquake,Eastern Africa,Africa,
168,1988,10/08/1988,1693825773,8,enewetak,MH,11.3474,162.3373,28.8,Natural,Geophysical,Earthquake,Melanesia,Oceania,1
46,1988,16/10/1988,1693825732,10,zakynthos,GR,37.7914,20.8953,29.68,Natural,Geophysical,Earthquake,Southern Europe,Europe,
48,1988,9/01/1988,1693825733,1,kavaje,AL,41.1856,19.5569,29.09,Natural,Geophysical,Earthquake,Southern Europe,Europe,
135,1988,11/08/1988,1693825758,8,nurabad,IR,34.0734,47.9725,32.08,Natural,Geophysical,Earthquake,Southern Asia,Asia,1
49,1988,6/02/1988,1693825734,2,baniachang,BD,24.5167,91.3667,34.53,Natural,Geophysical,Earthquake,Southern Asia,Asia,2
136,1988,30/03/1988,1693825763,3,behbahan,IR,30.5959,50.2417,44.29,Natural,Geophysical,Earthquake,Southern Asia,Asia,
52,1988,31/10/1988,1693825734,10,chiffa,DZ,36.4629,2.7387,30.39,Natural,Geophysical,Earthquake,Northern Africa,Africa,
53,1988,15/10/1988,1693825732,10,bamboo flat,IN,11.7,92.7167,28.05,Natural,Geophysical,Earthquake,Central America,Americas,
47,1988,3/11/1988,1693825732,11,bamboo flat,IN,11.7,92.7167,28.05,Natural,Geophysical,Earthquake,Central America,Americas,5
300,1989,18/10/1989,1693825543,10,tianfu,CN,37.1936,122.0511,21.96,Natural,Geophysical,Earthquake,Northern America,Americas,62
299,1989,23/01/1989,1693825816,1,dushanbe,TJ,38.5577,68.7797,31.9,Natural,Geophysical,Earthquake,Russian Federation,Europe,274
302,1989,4/05/1989,1693825759,5,kavaratti,IN,10.5669,72.642,26.46,Natural,Geophysical,Earthquake,South America,Americas,
215,1989,25/04/1989,1693825687,4,tak,TH,16.5833,98.8333,23.58,Natural,Geophysical,Earthquake,Central America,Americas,3
214,1989,27/05/1989,1693825787,5,dogonbadan,IR,30.3586,50.7981,41.54,Natural,Geophysical,Earthquake,Southern Asia,Asia,100
213,1989,14/07/1989,1693825787,7,aglayan,PH,8.055,125.1342,23.02,Natural,Geophysical,Earthquake,South-Eastern Asia,Asia,
212,1989,8/03/1989,1693825676,3,ternate,ID,0.8,127.4,26.9,Natural,Geophysical,Earthquake,South-Eastern Asia,Asia,
211,1989,1/10/1989,1693825786,10,yasuj,IR,30.6682,51.588,32.54,Natural,Geophysical,Earthquake,Southern Asia,Asia,
210,1989,1/08/1989,1693825743,8,colonia,DE,50.9333,6.95,25.32,Natural,Geophysical,Earthquake,South-Eastern Asia,Asia,120
301,1989,26/06/1989,1693825559,6,saipan,MP,15.1355,145.701,28.39,Natural,Geophysical,Earthquake,Northern America,Americas,5
216,1989,9/03/1989,1693825788,3,ad dindar,SD,13.2,34.1667,33.2,Natural,Geophysical,Earthquake,Eastern Africa,Africa,9
170,1989,29/10/1989,1693825773,10,tipasa,DZ,36.5897,2.4475,32.17,Natural,Geophysical,Earthquake,Northern Africa,Africa,22
175,1989,7/05/1989,1693825775,5,jianshui,CN,23.6363,102.8264,20.15,Natural,Geophysical,Earthquake,Eastern Asia,Asia,1
172,1989,12/06/1989,1693825774,6,sarankhola,BD,22.3082,89.7897,27.42,Natural,Geophysical,Earthquake,Southern Asia,Asia,1
171,1989,28/12/1989,1693825676,12,hasaki,JP,35.7333,140.8333,27.95,Natural,Geophysical,Earthquake,Australia and New Zealand,Oceania,12
176,1989,20/11/1989,1693825775,11,beibei,CN,29.8256,106.4339,30.96,Natural,Geophysical,Earthquake,Eastern Asia,Asia,4
177,1989,22/09/1989,1693825547,9,linqiong,CN,30.4159,103.4609,27.89,Natural,Geophysical,Earthquake,Eastern Asia,Asia,
174,1989,18/10/1989,1693825775,10,datong,CN,40.0936,113.2914,25.47,Natural,Geophysical,Earthquake,Eastern Asia,Asia,29
225,1990,21/12/1990,1693825791,12,polykastro,GR,40.9936,22.5658,22.77,Natural,Geophysical,Earthquake,Southern Europe,Europe,1
226,1990,16/06/1990,1693825791,6,nea peramos,GR,38.0076,23.423,29.22,Natural,Geophysical,Earthquake,Southern Europe,Europe,
227,1990,18/04/1990,1693825571,4,gorontalo,ID,0.5412,123.0595,24.68,Natural,Geophysical,Earthquake,South-Eastern Asia,Asia,5
228,1990,6/07/1990,1693825792,7,ko pha ngan,TH,9.7578,100.0291,25.43,Natural,Geophysical,Earthquake,South-Eastern Asia,Asia,
229,1990,10/02/1990,1693825696,2,kuala belait,BN,4.5833,114.1833,28.16,Natural,Geophysical,Volcanic activity,South-Eastern Asia,Asia,33
230,1990,6/11/1990,1693825792,11,darab,IR,28.7519,54.5444,39.32,Natural,Geophysical,Earthquake,Southern Asia,Asia,21
231,1990,6/05/1990,1693825793,5,sala consilina,IT,40.3912,15.5989,25.14,Natural,Geophysical,Earthquake,Southern Europe,Europe,2
234,1990,3/04/1990,1693825723,4,trincomalee,LK,8.5711,81.2335,28.29,Natural,Geophysical,Earthquake,Central America,Americas,
235,1990,22/10/1990,1693825794,10,mehtar lam,AF,34.6714,70.2094,36.05,Natural,Geophysical,Earthquake,Southern Asia,Asia,11
236,1990,4/03/1990,1693825794,3,kalat,PK,29.0225,66.5916,30.22,Natural,Geophysical,Earthquake,Southern Asia,Asia,11
238,1990,14/06/1990,1693825795,6,gibong,PH,11.8634,122.0394,27.59,Natural,Geophysical,Earthquake,South-Eastern Asia,Asia,4
224,1990,2/04/1990,1693825791,4,knokke-heist,BE,51.3333,3.3333,26.25,Natural,Geophysical,Earthquake,Northern Europe,Europe,
239,1990,7/06/1990,1693825795,6,lorengau,PG,-2.0226,147.2712,26.93,Natural,Geophysical,Earthquake,Melanesia,Oceania,
240,1990,30/05/1990,1693825777,5,tulnici,RO,45.9167,26.6667,13.97,Natural,Geophysical,Earthquake,Eastern Europe,Europe,9
314,1990,18/10/1990,1693825821,10,al bawiti,EG,28.3492,28.8659,33.74,Natural,Geophysical,Earthquake,Southern Africa,Africa,10
313,1990,27/07/1990,1693825820,7,rongelap,MH,11.1635,166.8941,28.81,Natural,Geophysical,Earthquake,Melanesia,Oceania,
312,1990,5/03/1990,1693825820,3,rongelap,MH,11.1635,166.8941,28.81,Natural,Geophysical,Earthquake,Melanesia,Oceania,
311,1990,19/02/1990,1693825820,2,rongelap,MH,11.1635,166.8941,28.81,Natural,Geophysical,Earthquake,Melanesia,Oceania,
310,1990,30/03/1990,1693825731,3,weihai,CN,37.5017,122.1136,23.52,Natural,Geophysical,Earthquake,Northern America,Americas,
309,1990,28/02/1990,1693825733,2,pizhou,CN,34.3114,117.9503,23.14,Natural,Geophysical,Earthquake,Northern America,Americas,
307,1990,1/12/1990,1693825818,12,uzgen,KG,40.7699,73.3007,24.16,Natural,Geophysical,Earthquake,Russian Federation,Europe,
306,1990,3/08/1990,1693825818,8,zaysan,KZ,47.4667,84.8667,20.04,Natural,Geophysical,Earthquake,Russian Federation,Europe,
305,1990,14/06/1990,1693825818,6,zaysan,KZ,47.4667,84.8667,20.04,Natural,Geophysical,Earthquake,Russian Federation,Europe,1
304,1990,30/05/1990,1693825777,5,tulnici,RO,45.9167,26.6667,13.97,Natural,Geophysical,Earthquake,Russian Federation,Europe,4
237,1990,4/06/1990,1693825739,6,malvan,IN,16.0667,73.4667,27.35,Natural,Geophysical,Volcanic activity,South America,Americas,
223,1990,23/06/1990,1693825790,6,utrik,MH,11.2278,169.8474,28.47,Natural,Geophysical,Earthquake,Melanesia,Oceania,
232,1990,13/12/1990,1693825793,12,augusta,DE,48.3667,10.8833,25.28,Natural,Geophysical,Earthquake,Southern Europe,Europe,19
221,1990,29/05/1990,1693825547,5,kanniyakumari,IN,8.0833,77.5667,26.23,Natural,Geophysical,Earthquake,South America,Americas,200
183,1990,25/03/1990,1693825778,3,vakarai,LT,55.6035,23.8213,21.29,Natural,Geophysical,Earthquake,Central America,Americas,
182,1990,22/12/1990,1693825777,12,trincomalee,LK,8.5711,81.2335,28.29,Natural,Geophysical,Earthquake,Central America,Americas,1
181,1990,26/04/1990,1693825777,4,xining,CN,36.6167,101.7667,22.89,Natural,Geophysical,Earthquake,Eastern Asia,Asia,126
180,1990,20/10/1990,1693825777,10,baiyin,CN,36.5583,104.2081,27,Natural,Geophysical,Earthquake,Eastern Asia,Asia,1
222,1990,3/03/1990,1693825790,3,utrik,MH,11.2278,169.8474,28.47,Natural,Geophysical,Earthquake,Melanesia,Oceania,
217,1990,15/11/1990,1693825713,11,langsa,ID,4.4683,97.9683,25.44,Natural,Geophysical,Earthquake,South-Eastern Asia,Asia,1
219,1990,16/07/1990,1693825789,7,laur,PH,15.5,121.15,25.18,Natural,Geophysical,Earthquake,South-Eastern Asia,Asia,2412
220,1990,8/02/1990,1693825789,2,mabini,PH,15.6,120.9833,25.88,Natural,Geophysical,Earthquake,South-Eastern Asia,Asia,1
179,1990,30/05/1990,1693825777,5,tulnici,RO,45.9167,26.6667,13.97,Natural,Geophysical,Earthquake,Eastern Europe,Europe,1
253,1991,15/12/1991,1693825631,12,zafferana etnea,IT,37.6822,15.108,29.33,Natural,Geophysical,Volcanic activity,Southern Europe,Europe,
254,1991,3/06/1991,1693825770,6,shimabara,JP,32.7833,130.3667,28.83,Natural,Geophysical,Volcanic activity,Eastern Asia,Asia,43
255,1991,5/01/1991,1693825799,1,mogok,MM,22.9167,96.5,22.67,Natural,Geophysical,Earthquake,South-Eastern Asia,Asia,
256,1991,31/01/1991,1693825747,1,rasht,IR,37.2808,49.5832,29.9,Natural,Geophysical,Earthquake,Southern Asia,Asia,300
257,1991,4/05/1991,1693825723,5,trincomalee,LK,8.5711,81.2335,28.29,Natural,Geophysical,Earthquake,Central America,Americas,
258,1991,4/04/1991,1693825547,4,kanniyakumari,IN,8.0833,77.5667,26.23,Natural,Geophysical,Earthquake,South America,Americas,53
259,1991,2/12/1991,1693825800,12,jebel,RO,45.5556,21.2136,25.62,Natural,Geophysical,Earthquake,Eastern Europe,Europe,
320,1991,22/11/1991,1693825822,11,dhi as sufal,YE,13.8345,44.1147,25.69,Natural,Geophysical,Earthquake,Western Asia,Asia,10
187,1991,13/08/1991,1693825779,8,priozersk,RU,61.0393,30.1291,22.27,Natural,Geophysical,Volcanic activity,South America,Americas,
194,1991,8/08/1991,1693825717,8,bamboo flat,IN,11.7,92.7167,28.05,Natural,Geophysical,Volcanic activity,Central America,Americas,
252,1991,27/07/1991,1693825798,7,erbil,IQ,36.1926,44.0106,40.9,Natural,Geophysical,Earthquake,Western Asia,Asia,20
192,1991,9/08/1991,1693825781,8,vakarai,LT,55.6035,23.8213,21.29,Natural,Geophysical,Earthquake,Central America,Americas,
191,1991,19/11/1991,1693825630,11,galle,LK,6.0367,80.217,24.69,Natural,Geophysical,Earthquake,South America,Americas,2
190,1991,26/03/1991,1693825780,3,petropavlovsk-kamchatsky,RU,53.0452,158.6483,9.88,Natural,Geophysical,Earthquake,Eastern Asia,Asia,1
315,1991,29/04/1991,1693825821,4,samtredia,GE,42.1537,42.3352,29.15,Natural,Geophysical,Earthquake,Russian Federation,Europe,270
193,1991,4/05/1991,1693825723,5,trincomalee,LK,8.5711,81.2335,28.29,Natural,Geophysical,Earthquake,Central America,Americas,
250,1991,24/10/1991,1693825691,10,tomohon,ID,1.3346,124.8392,22.52,Natural,Geophysical,Volcanic activity,South-Eastern Asia,Asia,
249,1991,4/07/1991,1693825749,7,loreto,MX,22.2667,-101.9667,15.48,Natural,Geophysical,Earthquake,South-Eastern Asia,Asia,28
184,1991,18/04/1991,1693825778,4,gharavuti,TJ,37.5672,68.4469,33.36,Natural,Geophysical,Earthquake,Southern Asia,Asia,24
185,1991,22/04/1991,1693825723,4,trincomalee,LK,8.5711,81.2335,28.29,Natural,Geophysical,Earthquake,Central America,Americas,47
186,1991,31/01/1991,1693825747,1,rasht,IR,37.2808,49.5832,29.9,Natural,Geophysical,Earthquake,Southern Asia,Asia,130
316,1991,31/01/1991,1693825821,1,parun,AF,35.4207,70.9221,19.27,Natural,Geophysical,Earthquake,Russian Federation,Europe,3
317,1991,8/03/1991,1693825709,3,bilibino,RU,68.0546,166.4372,0.58,Natural,Geophysical,Earthquake,Russian Federation,Europe,
251,1991,4/11/1991,1693825713,11,behbahan,IR,30.5959,50.2417,44.29,Natural,Geophysical,Earthquake,Southern Asia,Asia,
319,1991,28/06/1991,1693825733,6,pizhou,CN,34.3114,117.9503,23.14,Natural,Geophysical,Earthquake,Northern America,Americas,2
318,1991,18/04/1991,1693825778,4,gharavuti,TJ,37.5672,68.4469,33.36,Natural,Geophysical,Earthquake,Russian Federation,Europe,1
242,1991,22/04/1991,1693825723,4,trincomalee,LK,8.5711,81.2335,28.29,Natural,Geophysical,Earthquake,Central America,Americas,30
243,1991,15/06/1991,1693825765,6,alagir,RU,43.0422,44.2222,26.3,Natural,Geophysical,Earthquake,Western Asia,Asia,8
244,1991,18/09/1991,1693825732,9,bamboo flat,IN,11.7,92.7167,28.05,Natural,Geophysical,Earthquake,Central America,Americas,14
245,1991,20/10/1991,1693825796,10,uttarkashi,IN,30.7333,78.45,29.44,Natural,Geophysical,Earthquake,Southern Asia,Asia,1500
246,1991,24/07/1991,1693825739,7,malvan,IN,16.0667,73.4667,27.35,Natural,Geophysical,Earthquake,South America,Americas,11
247,1991,18/07/1991,1693825797,7,baile herculane,RO,44.8797,22.4125,19.48,Natural,Geophysical,Earthquake,Eastern Europe,Europe,
248,1991,20/06/1991,1693825571,6,gorontalo,ID,0.5412,123.0595,24.68,Natural,Geophysical,Earthquake,South-Eastern Asia,Asia,
241,1991,9/06/1991,1693825795,6,babo-pangulo,PH,15.0833,120.5167,25.29,Natural,Geophysical,Volcanic activity,South-Eastern Asia,Asia,640
188,1991,13/08/1991,1693825779,8,priozersk,RU,61.0393,30.1291,22.27,Natural,Geophysical,Volcanic activity,South America,Americas,
321,1992,13/03/1992,1693825822,3,cimin,TR,39.7101,39.7021,29.04,Natural,Geophysical,Earthquake,Western Asia,Asia,653
322,1992,15/05/1992,1693825823,5,kochkor-ata,UZ,41.0389,72.4833,30.18,Natural,Geophysical,Earthquake,Central Asia,Asia,9
323,1992,25/04/1992,1693825679,4,uiju,KP,40.1994,124.5317,22.26,Natural,Geophysical,Earthquake,Northern America,Americas,
324,1992,28/06/1992,1693825772,6,suicheng,CN,33.8963,117.9331,23.34,Natural,Geophysical,Earthquake,Northern America,Americas,1
325,1992,22/04/1992,1693825766,4,suixi,CN,33.8907,116.7747,24.4,Natural,Geophysical,Earthquake,Northern America,Americas,
326,1992,11/09/1992,1693825824,9,obo,CF,5.3998,26.4869,28.95,Natural,Geophysical,Earthquake,Middle Africa,Africa,9
263,1992,12/12/1992,1693825803,12,kalawit,PH,8.0667,122.5167,26.7,Natural,Geophysical,Earthquake,South-Eastern Asia,Asia,2500
268,1992,17/04/1992,1693825805,4,shimabara,JP,32.7833,130.3667,28.83,Natural,Geophysical,Volcanic activity,Eastern Asia,Asia,
270,1992,9/04/1992,1693825717,4,bamboo flat,IN,11.7,92.7167,28.05,Natural,Geophysical,Volcanic activity,Central America,Americas,1
271,1992,13/04/1992,1693825631,4,kinrooi,BE,51.1476,5.7385,25.58,Natural,Geophysical,Earthquake,Western Europe,Europe,
266,1992,4/02/1992,1693825597,2,la gi,VN,10.6667,107.7833,26.8,Natural,Geophysical,Earthquake,South-Eastern Asia,Asia,
272,1992,28/08/1992,1693825806,8,kalat,PK,29.0225,66.5916,30.22,Natural,Geophysical,Earthquake,Southern Asia,Asia,4
273,1992,20/05/1992,1693825782,5,lachi,PK,33.3833,71.3386,37.13,Natural,Geophysical,Earthquake,Southern Asia,Asia,36
274,1992,14/02/1992,1693825806,2,subic,PH,14.9,120.2333,26.03,Natural,Geophysical,Volcanic activity,South-Eastern Asia,Asia,
265,1992,8/01/1992,1693825717,1,bamboo flat,IN,11.7,92.7167,28.05,Natural,Geophysical,Volcanic activity,Central America,Americas,
264,1992,1/09/1992,1693825717,9,bamboo flat,IN,11.7,92.7167,28.05,Natural,Geophysical,Earthquake,Central America,Americas,179
262,1992,19/08/1992,1693825802,8,sosnovka,RU,56.255,51.2842,23.79,Natural,Geophysical,Earthquake,Central Asia,Asia,54
261,1992,4/03/1992,1693825802,3,borujen,IR,31.9652,51.2873,30.39,Natural,Geophysical,Earthquake,Southern Asia,Asia,5
260,1992,24/10/1992,1693825801,10,akhmet'a,GE,42.0311,45.2075,26.29,Natural,Geophysical,Earthquake,Western Asia,Asia,1
275,1992,14/10/1992,1693825807,10,lorengau,PG,-2.0226,147.2712,26.93,Natural,Geophysical,Volcanic activity,Melanesia,Oceania,
269,1992,22/05/1992,1693825802,5,sosnovka,RU,56.255,51.2842,23.79,Natural,Geophysical,Earthquake,Central Asia,Asia,4
267,1992,2/02/1992,1693825642,2,miura,JP,35.14,139.6192,27.25,Natural,Geophysical,Earthquake,Eastern Asia,Asia,
202,1992,12/10/1992,1693825783,10,al hawamidiyah,EG,29.9,31.25,31.44,Natural,Geophysical,Earthquake,Northern Africa,Africa,552
201,1992,19/01/1992,1693825783,1,bouinan,DZ,36.5317,2.9919,30.54,Natural,Geophysical,Earthquake,Northern Africa,Africa,
200,1992,13/04/1992,1693825631,4,kinrooi,BE,51.1476,5.7385,25.58,Natural,Geophysical,Earthquake,Western Europe,Europe,1
199,1992,25/05/1992,1693825783,5,pusad,IN,19.9,77.5833,27.87,Natural,Geophysical,Earthquake,Caribbean,Americas,
198,1992,31/07/1992,1693825782,7,lhasa,CN,29.65,91.1,20.95,Natural,Geophysical,Earthquake,Eastern Asia,Asia,
197,1992,13/04/1992,1693825631,4,kinrooi,BE,51.1476,5.7385,25.58,Natural,Geophysical,Earthquake,Western Europe,Europe,
196,1992,20/05/1992,1693825782,5,lachi,PK,33.3833,71.3386,37.13,Natural,Geophysical,Earthquake,Southern Asia,Asia,14
195,1992,17/10/1992,1693825781,10,ochobo,NG,7.183,7.9769,23.61,Natural,Geophysical,Earthquake,South America,Americas,11
203,1993,27/01/1993,1693825784,1,jinghong,CN,21.991,100.7341,28.08,Natural,Geophysical,Earthquake,Eastern Asia,Asia,
327,1993,1/08/1993,1693825824,8,omdurman,SD,15.6445,32.4777,38.7,Natural,Geophysical,Earthquake,Northern Africa,Africa,3
328,1993,21/09/1993,1693825825,9,fuxin,CN,42.0156,121.6589,22.99,Natural,Geophysical,Earthquake,Northern America,Americas,2
329,1993,13/03/1993,1693825825,3,mejit,MH,10.2753,170.8646,28.15,Natural,Geophysical,Earthquake,Polynesia,Oceania,5
204,1993,22/07/1993,1693825784,7,kulhudhuffushi,MV,6.6221,73.07,27.72,Natural,Geophysical,Earthquake,South America,Americas,2
206,1993,10/07/1993,1693825781,7,vakarai,LT,55.6035,23.8213,21.29,Natural,Geophysical,Earthquake,Central America,Americas,3
277,1993,9/08/1993,1693825808,8,inarajan village,GU,13.2736,144.7484,28.55,Natural,Geophysical,Earthquake,Micronesia,Oceania,
284,1993,29/09/1993,1693825810,9,murgud,IN,16.4,74.2,22.49,Natural,Geophysical,Earthquake,Southern Asia,Asia,9748
280,1993,13/10/1993,1693825751,10,weno,FM,7.4515,151.8468,26.97,Natural,Geophysical,Earthquake,Melanesia,Oceania,53
281,1993,27/03/1993,1693825586,3,pyrgos,GR,37.6751,21.441,29.88,Natural,Geophysical,Earthquake,Southern Europe,Europe,1
282,1993,14/07/1993,1693825809,7,patra,GR,38.2444,21.7344,26.99,Natural,Geophysical,Earthquake,Southern Europe,Europe,
283,1993,25/01/1993,1693825736,1,ca mau,VN,9.1769,105.15,26.53,Natural,Geophysical,Volcanic activity,South-Eastern Asia,Asia,2
276,1993,12/07/1993,1693825511,7,iwanai,JP,42.9744,140.5089,22.87,Natural,Geophysical,Earthquake,Eastern Asia,Asia,239
285,1993,12/11/1993,1693825810,11,ausa,ES,41.9271,2.2497,32.13,Natural,Geophysical,Earthquake,Southern Asia,Asia,
286,1993,22/06/1993,1693825787,6,dogonbadan,IR,30.3586,50.7981,41.54,Natural,Geophysical,Earthquake,Southern Asia,Asia,24
287,1993,27/01/1993,1693825811,1,birjand,IR,32.8663,59.2211,29.99,Natural,Geophysical,Earthquake,Southern Asia,Asia,
288,1993,23/06/1993,1693825805,6,shimabara,JP,32.7833,130.3667,28.83,Natural,Geophysical,Volcanic activity,Eastern Asia,Asia,1
289,1993,24/10/1993,1693825811,10,mae sot,TH,16.7167,98.5667,25.83,Natural,Geophysical,Earthquake,Central America,Americas,
290,1993,20/10/1993,1693825812,10,besisahar,NP,28.2313,84.3761,29.21,Natural,Geophysical,Earthquake,Southern Asia,Asia,
291,1993,6/02/1993,1693825812,2,malilipot,PH,13.3188,123.7385,27.44,Natural,Geophysical,Volcanic activity,South-Eastern Asia,Asia,79
279,1993,18/04/1993,1693825808,4,masinigudi,IN,11.5667,76.6667,24.79,Natural,Geophysical,Earthquake,South America,Americas,6
278,1993,15/01/1993,1693825509,1,kitami,JP,43.8031,143.8908,21.36,Natural,Geophysical,Earthquake,Eastern Asia,Asia,2
368,1994,22/07/1994,1693825837,7,muang phonsavan,LA,19.45,103.2167,20.89,Natural,Geophysical,Volcanic activity,Central America,Americas,
367,1994,28/12/1994,1693825837,12,miyako,JP,39.6367,141.9525,23.22,Natural,Geophysical,Earthquake,Eastern Asia,Asia,2
366,1994,22/11/1994,1693825836,11,la gi,VN,10.6667,107.7833,26.8,Natural,Geophysical,Volcanic activity,South-Eastern Asia,Asia,58
365,1994,20/11/1994,1693825836,11,manokwari,ID,-0.8667,134.0833,26.02,Natural,Geophysical,Earthquake,South-Eastern Asia,Asia,
364,1994,18/08/1994,1693825836,8,mascara,DZ,35.3966,0.1403,31.26,Natural,Geophysical,Earthquake,Northern Africa,Africa,171
363,1994,4/10/1994,1693825836,10,yuzhno-kurilsk,RU,44.0306,145.8556,17.7,Natural,Geophysical,Earthquake,Eastern Asia,Asia,5
428,1994,26/12/1994,1693825733,12,pizhou,CN,34.3114,117.9503,23.14,Natural,Geophysical,Earthquake,Northern America,Americas,
427,1994,19/09/1994,1693825757,9,weno,FM,7.4515,151.8468,26.97,Natural,Geophysical,Volcanic activity,Melanesia,Oceania,5
426,1994,4/10/1994,1693825836,10,yuzhno-kurilsk,RU,44.0306,145.8556,17.7,Natural,Geophysical,Earthquake,Eastern Europe,Europe,11
371,1994,13/05/1994,1693825838,5,rancheria payau,PH,7.8541,123.1598,23.67,Natural,Geophysical,Earthquake,South-Eastern Asia,Asia,
370,1994,15/11/1994,1693825837,11,canubing no 2,PH,13.35,121.1333,28.38,Natural,Geophysical,Earthquake,South-Eastern Asia,Asia,81
369,1994,21/12/1994,1693825837,12,chiang mai,TH,18.75,99,31.15,Natural,Geophysical,Volcanic activity,Central America,Americas,
362,1994,9/10/1994,1693825835,10,tobelo,ID,1.7284,128.0095,27.03,Natural,Geophysical,Earthquake,South-Eastern Asia,Asia,1
331,1994,6/02/1994,1693825826,2,bundibugyo,UG,0.7414,30.0417,32.66,Natural,Geophysical,Earthquake,Eastern Africa,Africa,7
332,1994,13/08/1994,1693825826,8,fengcheng,CN,40.4536,124.0717,22.08,Natural,Geophysical,Earthquake,Melanesia,Oceania,
208,1994,6/06/1994,1693825785,6,dirba,IN,30.0667,75.9833,39.14,Natural,Geophysical,Earthquake,South America,Americas,271
336,1994,3/01/1994,1693825757,1,xining,CN,36.6167,101.7667,22.89,Natural,Geophysical,Earthquake,Eastern Asia,Asia,
335,1994,31/12/1994,1693825827,12,lincheng,CN,19.9078,109.6858,28.21,Natural,Geophysical,Earthquake,Eastern Asia,Asia,
334,1994,15/09/1994,1693825827,9,magong,TW,23.5654,119.5863,26.68,Natural,Geophysical,Earthquake,Eastern Asia,Asia,1
333,1994,6/08/1994,1693825826,8,hasaki,JP,35.7333,140.8333,27.95,Natural,Geophysical,Earthquake,Australia and New Zealand,Oceania,
209,1994,1/05/1994,1693825786,5,qarchi gak,AF,37.04,66.7889,35.83,Natural,Geophysical,Earthquake,Southern Asia,Asia,160
292,1994,16/02/1994,1693825521,2,paka,MY,4.6374,103.4368,27.06,Natural,Geophysical,Earthquake,South-Eastern Asia,Asia,207
295,1994,2/06/1994,1693825814,6,mubi,NG,10.2676,13.2644,27.2,Natural,Geophysical,Earthquake,South-Eastern Asia,Asia,239
294,1994,20/06/1994,1693825813,6,akbarabad,IR,29.2464,52.7793,36.79,Natural,Geophysical,Earthquake,Southern Asia,Asia,2
293,1994,1/03/1994,1693825813,3,akbarabad,IR,29.2464,52.7793,36.79,Natural,Geophysical,Earthquake,Southern Asia,Asia,3
330,1994,17/01/1994,1693825825,1,kasese,UG,0.1833,30.0833,32.65,Natural,Geophysical,Earthquake,Northern America,Americas,60
298,1994,23/02/1994,1693825815,2,zabol,AF,32.25,67.25,31.6,Natural,Geophysical,Earthquake,Southern Asia,Asia,9
297,1994,3/02/1994,1693825814,2,labuan,MY,5.2767,115.2417,29.52,Natural,Geophysical,Volcanic activity,South-Eastern Asia,Asia,7
207,1994,9/06/1994,1693825759,6,kavaratti,IN,10.5669,72.642,26.46,Natural,Geophysical,Earthquake,South America,Americas,5
376,1995,8/02/1995,1693825811,2,male,MV,4.1748,73.5089,28.33,Natural,Geophysical,Earthquake,South America,Americas,40
378,1995,23/02/1995,1693825584,2,paphos,CY,34.7667,32.4167,29.57,Natural,Geophysical,Earthquake,Western Asia,Asia,2
339,1995,24/10/1995,1693825828,10,dadukou,CN,26.5479,101.7054,26.33,Natural,Geophysical,Earthquake,Eastern Asia,Asia,46
381,1995,22/11/1995,1693825842,11,dahab,EG,28.501,34.5134,32.56,Natural,Geophysical,Earthquake,Northern Africa,Africa,10
375,1995,7/10/1995,1693825839,10,dumai,ID,1.6833,101.45,26.98,Natural,Geophysical,Earthquake,South-Eastern Asia,Asia,84
382,1995,13/05/1995,1693825842,5,siatista,GR,40.2619,21.5442,12.88,Natural,Geophysical,Earthquake,Southern Europe,Europe,26
383,1995,15/06/1995,1693825842,6,aigio,GR,38.2486,22.0819,25.58,Natural,Geophysical,Earthquake,Southern Europe,Europe,26
384,1995,19/05/1995,1693825642,5,palu,ID,-0.8917,119.8707,25.13,Natural,Geophysical,Earthquake,South-Eastern Asia,Asia,
385,1995,1/04/1995,1693825843,4,suibara,JP,37.8333,139.2333,28.26,Natural,Geophysical,Earthquake,Eastern Asia,Asia,
386,1995,14/09/1995,1693825843,9,mae sot,TH,16.7167,98.5667,25.83,Natural,Geophysical,Earthquake,Central America,Americas,6
387,1995,9/10/1995,1693825844,10,waeng,TH,16.3001,103.9779,28.33,Natural,Geophysical,Earthquake,Central America,Americas,58
389,1995,12/07/1995,1693825828,7,jinghong,CN,21.991,100.7341,28.08,Natural,Geophysical,Earthquake,South-Eastern Asia,Asia,
390,1995,21/11/1995,1693825717,11,bamboo flat,IN,11.7,92.7167,28.05,Natural,Geophysical,Volcanic activity,Central America,Americas,
391,1995,24/09/1995,1693825780,9,petropavlovsk-kamchatsky,RU,53.0452,158.6483,9.88,Natural,Geophysical,Volcanic activity,Australia and New Zealand,Oceania,
392,1995,21/04/1995,1693825608,4,dolores,AR,-36.3132,-57.6792,5.32,Natural,Geophysical,Earthquake,South-Eastern Asia,Asia,
429,1995,27/05/1995,1693825856,5,nogliki,RU,51.8333,143.1667,10.86,Natural,Geophysical,Earthquake,Eastern Europe,Europe,1989
430,1995,12/07/1995,1693825828,7,jinghong,CN,21.991,100.7341,28.08,Natural,Geophysical,Earthquake,South-Eastern Asia,Asia,
431,1995,1/10/1995,1693825857,10,dinar,TR,38.065,30.1656,27.98,Natural,Geophysical,Earthquake,Western Asia,Asia,94
380,1995,2/10/1995,1693825630,10,galle,LK,6.0367,80.217,24.69,Natural,Geophysical,Earthquake,South America,Americas,2
374,1995,19/01/1995,1693825839,1,eydhafushi,MV,5.1033,73.0708,28.39,Natural,Geophysical,Earthquake,South America,Americas,7
388,1995,20/10/1995,1693825728,10,pathein,MM,16.7833,94.7333,25.96,Natural,Geophysical,Earthquake,Central America,Americas,
372,1995,14/05/1995,1693825838,5,siatista,GR,40.2619,21.5442,12.88,Natural,Geophysical,Earthquake,South-Eastern Asia,Asia,15
340,1995,21/07/1995,1693825693,7,lanzhou,CN,36.0564,103.7922,28.21,Natural,Geophysical,Earthquake,Eastern Asia,Asia,14
338,1995,12/07/1995,1693825828,7,jinghong,CN,21.991,100.7341,28.08,Natural,Geophysical,Earthquake,Eastern Asia,Asia,11
373,1995,17/01/1995,1693825802,1,akashi,JP,34.6333,134.9833,30.02,Natural,Geophysical,Earthquake,Eastern Asia,Asia,5297
337,1995,30/07/1995,1693825828,7,bhachau,IN,23.2833,70.35,34.75,Natural,Geophysical,Earthquake,South America,Americas,3
434,1996,4/12/1996,1693825807,12,lorengau,PG,-2.0226,147.2712,26.93,Natural,Geophysical,Volcanic activity,Melanesia,Oceania,4
401,1996,21/02/1996,1693825848,2,rameswaram,IN,9.2833,79.3,28.42,Natural,Geophysical,Earthquake,South America,Americas,7
400,1996,12/11/1996,1693825847,11,hadagalli,IN,15.0167,75.95,21.93,Natural,Geophysical,Earthquake,South America,Americas,14
399,1996,1/10/1996,1693825847,10,solleftea,SE,63.1667,17.2667,15.92,Natural,Geophysical,Volcanic activity,Northern Europe,Europe,
398,1996,5/09/1996,1693825661,9,dubrovnik,HR,42.6481,18.0922,26.8,Natural,Geophysical,Earthquake,Southern Europe,Europe,
397,1996,11/11/1996,1693825732,11,bamboo flat,IN,11.7,92.7167,28.05,Natural,Geophysical,Volcanic activity,Central America,Americas,
396,1996,6/08/1996,1693825846,8,permet,AL,40.2336,20.3517,21.59,Natural,Geophysical,Earthquake,Southern Europe,Europe,
394,1996,17/02/1996,1693825836,2,manokwari,ID,-0.8667,134.0833,26.02,Natural,Geophysical,Earthquake,South-Eastern Asia,Asia,166
393,1996,1/01/1996,1693825642,1,palu,ID,-0.8917,119.8707,25.13,Natural,Geophysical,Earthquake,South-Eastern Asia,Asia,9
344,1996,19/03/1996,1693825830,3,kashgar,CN,39.4547,75.9797,31.23,Natural,Geophysical,Earthquake,Eastern Asia,Asia,26
343,1996,3/05/1996,1693825829,5,baotou,CN,40.6522,109.8222,28.71,Natural,Geophysical,Earthquake,Eastern Asia,Asia,18
342,1996,3/02/1996,1693825829,2,lianran,CN,24.9227,102.485,20.31,Natural,Geophysical,Earthquake,Eastern Asia,Asia,309
341,1996,31/01/1996,1693825719,1,maymana,AF,35.9214,64.7836,30.19,Natural,Geophysical,Earthquake,Southern Asia,Asia,
432,1996,14/08/1996,1693825857,8,merzifon,TR,40.8733,35.4631,24.7,Natural,Geophysical,Earthquake,Western Asia,Asia,
433,1996,6/10/1996,1693825757,10,weno,FM,7.4515,151.8468,26.97,Natural,Geophysical,Volcanic activity,Melanesia,Oceania,
345,1996,25/09/1996,1693825830,9,lijiang,CN,26.8688,100.2207,18.92,Natural,Geophysical,Earthquake,Eastern Asia,Asia,
409,1997,25/06/1997,1693825850,6,aman garh,PK,34.0058,71.93,37.34,Natural,Geophysical,Earthquake,Southern Asia,Asia,
414,1997,1/07/1997,1693825851,7,mae hong son,TH,19.3003,97.9685,28.72,Natural,Geophysical,Volcanic activity,Central America,Americas,20
435,1997,9/07/1997,1693825771,7,kavaratti,IN,10.5669,72.642,26.46,Natural,Geophysical,Earthquake,South America,Americas,80
436,1997,21/04/1997,1693825820,4,rongelap,MH,11.1635,166.8941,28.81,Natural,Geophysical,Earthquake,Melanesia,Oceania,
413,1997,22/05/1997,1693825851,5,si chiang mai,TH,17.9564,102.5867,32.21,Natural,Geophysical,Earthquake,Central America,Americas,
412,1997,12/01/1997,1693825851,1,nakhon thai,TH,17.1006,100.8374,27.4,Natural,Geophysical,Earthquake,Central America,Americas,1
411,1997,9/01/1997,1693825851,1,uzgen,KG,40.7699,73.3007,24.16,Natural,Geophysical,Earthquake,Central Asia,Asia,
410,1997,26/09/1997,1693825850,9,matelica,IT,43.2541,13.0106,26.68,Natural,Geophysical,Earthquake,Southern Europe,Europe,14
415,1997,25/06/1997,1693825852,6,sur,OM,22.5667,59.5289,31.32,Natural,Geophysical,Volcanic activity,Caribbean,Americas,32
407,1997,4/02/1997,1693825849,2,bojnurd,IR,37.4747,57.329,31.12,Natural,Geophysical,Earthquake,Southern Asia,Asia,100
406,1997,22/05/1997,1693825849,5,barela,IN,23.1,80.05,35.45,Natural,Geophysical,Earthquake,Southern Asia,Asia,43
353,1997,11/04/1997,1693825727,4,kashgar,CN,39.4547,75.9797,31.23,Natural,Geophysical,Earthquake,Eastern Asia,Asia,9
352,1997,1/03/1997,1693825830,3,kashgar,CN,39.4547,75.9797,31.23,Natural,Geophysical,Earthquake,Eastern Asia,Asia,2
351,1997,6/04/1997,1693825830,4,kashgar,CN,39.4547,75.9797,31.23,Natural,Geophysical,Earthquake,Eastern Asia,Asia,9
350,1997,21/01/1997,1693825830,1,kashgar,CN,39.4547,75.9797,31.23,Natural,Geophysical,Earthquake,Eastern Asia,Asia,12
437,1997,22/04/1997,1693825859,4,hadibu,YE,12.65,54.0333,28.43,Natural,Geophysical,Earthquake,Caribbean,Americas,
349,1997,22/11/1997,1693825831,11,saiha,IN,22.4833,92.9667,24.77,Natural,Geophysical,Earthquake,Southern Asia,Asia,23
348,1997,18/07/1997,1693825831,7,noyemberyan,AM,41.1724,44.9992,25.11,Natural,Geophysical,Earthquake,Western Asia,Asia,
408,1997,28/02/1997,1693825850,2,ardabil,IR,38.2498,48.2933,22.75,Natural,Geophysical,Earthquake,Southern Asia,Asia,1100
438,1997,21/07/1997,1693825859,7,siwa oasis,EG,29.2041,25.5195,31.67,Natural,Geophysical,Earthquake,Southern Africa,Africa,15
402,1997,10/05/1997,1693825737,5,qa'en,IR,33.7265,59.1844,28.25,Natural,Geophysical,Earthquake,Southern Asia,Asia,1568
405,1997,17/01/1997,1693825597,1,la gi,VN,10.6667,107.7833,26.8,Natural,Geophysical,Volcanic activity,South-Eastern Asia,Asia,1
404,1997,28/09/1997,1693825848,9,sitangkai,PH,4.6628,119.3928,28.54,Natural,Geophysical,Earthquake,South-Eastern Asia,Asia,20
347,1997,10/05/1997,1693825737,5,qa'en,IR,33.7265,59.1844,28.25,Natural,Geophysical,Earthquake,Southern Asia,Asia,5
346,1997,14/10/1997,1693825831,10,chak two hundred forty-nine thal development authority,PK,31.1796,71.2095,42.18,Natural,Geophysical,Earthquake,South America,Americas,8
403,1997,28/02/1997,1693825848,2,harnai,PK,30.1005,67.9374,35.66,Natural,Geophysical,Earthquake,Southern Asia,Asia,50
449,1998,26/10/1998,1693825595,10,lijiang,CN,26.8688,100.2207,18.92,Natural,Geophysical,Earthquake,Eastern Asia,Asia,
465,1998,20/02/1998,1693825756,2,jurm,AF,36.8648,70.8342,25.31,Natural,Geophysical,Earthquake,Southern Asia,Asia,1
466,1998,28/09/1998,1693825867,9,kuala belait,BN,4.5833,114.1833,28.16,Natural,Geophysical,Earthquake,South-Eastern Asia,Asia,1
468,1998,25/03/1998,1693825723,3,trincomalee,LK,8.5711,81.2335,28.29,Natural,Geophysical,Earthquake,Central America,Americas,
444,1998,1/10/1998,1693825632,10,kukes,AL,42.0769,20.4219,20.91,Natural,Geophysical,Earthquake,Southern Europe,Europe,
448,1998,27/08/1998,1693825860,8,shache,CN,38.4167,77.2406,31.81,Natural,Geophysical,Earthquake,Eastern Asia,Asia,3
439,1998,17/07/1998,1693825757,7,jayapura,ID,-2.5333,140.7,27.66,Natural,Geophysical,Earthquake,Melanesia,Oceania,2182
446,1998,19/03/1998,1693825830,3,kashgar,CN,39.4547,75.9797,31.23,Natural,Geophysical,Earthquake,Eastern Asia,Asia,
441,1998,28/06/1998,1693825860,6,lodwar,KE,3.1191,35.5973,32.87,Natural,Geophysical,Earthquake,Western Asia,Asia,145
442,1998,4/07/1998,1693825860,7,adana,TR,36.985,35.2881,33.29,Natural,Geophysical,Earthquake,Western Asia,Asia,
443,1998,20/02/1998,1693825756,2,jurm,AF,36.8648,70.8342,25.31,Natural,Geophysical,Earthquake,Southern Asia,Asia,
445,1998,1/12/1998,1693825712,12,weining,CN,26.85,104.2333,17.57,Natural,Geophysical,Earthquake,Eastern Asia,Asia,
440,1998,12/04/1998,1693825834,4,kobarid,SI,46.2481,13.5772,25.99,Natural,Geophysical,Earthquake,Southern Europe,Europe,
420,1998,20/05/1998,1693825732,5,bamboo flat,IN,11.7,92.7167,28.05,Natural,Geophysical,Volcanic activity,Central America,Americas,
424,1998,3/04/1998,1693825735,4,gualdo tadino,IT,43.2317,12.781,25.79,Natural,Geophysical,Earthquake,Southern Europe,Europe,
425,1998,22/11/1998,1693825855,11,muang phonsavan,LA,19.45,103.2167,20.89,Natural,Geophysical,Volcanic activity,Central America,Americas,
355,1998,30/05/1998,1693825833,5,rustaq,OM,23.3908,57.4244,36.94,Natural,Geophysical,Earthquake,Southern Asia,Asia,4700
356,1998,19/11/1998,1693825830,11,lijiang,CN,26.8688,100.2207,18.92,Natural,Geophysical,Earthquake,Eastern Asia,Asia,3
357,1998,4/02/1998,1693825821,2,rustaq,OM,23.3908,57.4244,36.94,Natural,Geophysical,Earthquake,Southern Asia,Asia,2323
358,1998,12/04/1998,1693825834,4,kobarid,SI,46.2481,13.5772,25.99,Natural,Geophysical,Earthquake,Western Europe,Europe,
360,1998,8/07/1998,1693825835,7,kula,TR,38.5473,28.6498,28.39,Natural,Geophysical,Earthquake,Southern Europe,Europe,10
354,1998,10/01/1998,1693825833,1,zhangjiakou,CN,40.81,114.8794,24.81,Natural,Geophysical,Earthquake,Eastern Asia,Asia,49
359,1998,9/07/1998,1693825834,7,lerik,AZ,38.7726,48.4128,24.4,Natural,Geophysical,Earthquake,Western Asia,Asia,1
416,1998,13/11/1998,1693825852,11,gerash,IR,27.6652,54.1371,40.98,Natural,Geophysical,Earthquake,Southern Asia,Asia,5
423,1998,10/04/1998,1693825854,4,birjand,IR,32.8663,59.2211,29.99,Natural,Geophysical,Earthquake,Southern Asia,Asia,12
417,1998,29/11/1998,1693825853,11,"laikit, laikit ii (dimembe)",ID,1.4792,124.9735,25.47,Natural,Geophysical,Earthquake,South-Eastern Asia,Asia,33
418,1998,5/05/1998,1693825723,5,trincomalee,LK,8.5711,81.2335,28.29,Natural,Geophysical,Volcanic activity,Central America,Americas,
422,1998,14/03/1998,1693825744,3,kerman,IR,30.2832,57.0788,31.67,Natural,Geophysical,Earthquake,Southern Asia,Asia,5
421,1998,11/07/1998,1693825836,7,la gi,VN,10.6667,107.7833,26.8,Natural,Geophysical,Volcanic activity,South-Eastern Asia,Asia,
361,1998,22/05/1998,1693825756,5,porbandar,IN,21.6422,69.6093,29.75,Natural,Geophysical,Earthquake,South America,Americas,95
509,1999,21/09/1999,1693825882,9,puli,TW,23.9664,120.9695,26.23,Natural,Geophysical,Earthquake,Eastern Asia,Asia,2264
479,1999,6/05/1999,1693825873,5,kazerun,IR,29.6195,51.6541,39.74,Natural,Geophysical,Earthquake,Southern Asia,Asia,20
480,1999,26/11/1999,1693825873,11,azadshahr,IR,34.7909,48.5707,32.3,Natural,Geophysical,Earthquake,Southern Asia,Asia,
481,1999,30/09/1999,1693825873,9,thongwa,MM,16.7619,96.5278,28.09,Natural,Geophysical,Earthquake,Central America,Americas,31
482,1999,21/06/1999,1693825745,6,nam som,TH,17.7704,102.1895,31.61,Natural,Geophysical,Earthquake,Central America,Americas,
508,1999,12/11/1999,1693825881,11,duzce,TR,40.8389,31.1639,25.57,Natural,Geophysical,Earthquake,Western Asia,Asia,845
483,1999,20/11/1999,1693825717,11,bamboo flat,IN,11.7,92.7167,28.05,Natural,Geophysical,Volcanic activity,Central America,Americas,
518,1999,22/10/1999,1693825885,10,douliu,TW,23.7094,120.5433,28.2,Natural,Geophysical,Earthquake,Eastern Asia,Asia,1
517,1999,11/11/1999,1693825881,11,duzce,TR,40.8389,31.1639,25.57,Natural,Geophysical,Earthquake,Western Asia,Asia,3
516,1999,31/08/1999,1693825884,8,yuvacik,TR,40.6881,29.9674,29.01,Natural,Geophysical,Earthquake,Western Asia,Asia,1
515,1999,13/09/1999,1693825884,9,kosekoy,TR,40.7534,30.0302,29.96,Natural,Geophysical,Earthquake,Western Asia,Asia,6
478,1999,4/03/1999,1693825688,3,minab,IR,27.1467,57.0801,33.89,Natural,Geophysical,Earthquake,Southern Asia,Asia,1
513,1999,21/02/1999,1693825883,2,novyy sulak,RU,43.2117,46.815,31.33,Natural,Geophysical,Earthquake,Eastern Europe,Europe,1
512,1999,2/02/1999,1693825882,2,chirkey,RU,42.9613,46.9787,28.67,Natural,Geophysical,Earthquake,Eastern Europe,Europe,
511,1999,12/12/1999,1693825882,12,santa cruz,BO,-17.8,-63.1667,24.7,Natural,Geophysical,Earthquake,South-Eastern Asia,Asia,6
510,1999,31/10/1999,1693825882,10,gangolli,IN,13.65,74.6667,28.16,Natural,Geophysical,Earthquake,South America,Americas,
484,1999,5/08/1999,1693825732,8,bamboo flat,IN,11.7,92.7167,28.05,Natural,Geophysical,Volcanic activity,Central America,Americas,
477,1999,28/03/1999,1693825872,3,joshimath,IN,30.5667,79.5667,24.81,Natural,Geophysical,Earthquake,Southern Asia,Asia,100
471,1999,4/04/1999,1693825870,4,buea,CM,4.1527,9.241,21.38,Natural,Geophysical,Volcanic activity,Middle Africa,Africa,
475,1999,11/07/1999,1693825871,7,konarka,IN,19.9,86.1167,28.22,Natural,Geophysical,Earthquake,Central America,Americas,2
507,1999,3/04/1999,1693825881,4,ratnagiri,IN,16.9833,73.3,28.13,Natural,Geophysical,Earthquake,South America,Americas,1
450,1999,11/02/1999,1693825863,2,hukumati azrah,AF,34.1736,69.6457,24.81,Natural,Geophysical,Earthquake,Southern Asia,Asia,70
451,1999,4/06/1999,1693825863,6,agdas,AZ,40.65,47.4761,31.93,Natural,Geophysical,Earthquake,Western Asia,Asia,1
452,1999,22/07/1999,1693825683,7,cox's bazar,BD,21.4532,91.9798,27.38,Natural,Geophysical,Earthquake,Southern Asia,Asia,6
453,1999,11/03/1999,1693825833,3,zhangjiakou,CN,40.81,114.8794,24.81,Natural,Geophysical,Earthquake,Eastern Asia,Asia,
454,1999,1/11/1999,1693825844,11,datong,CN,40.0936,113.2914,25.47,Natural,Geophysical,Earthquake,Eastern Asia,Asia,
455,1999,29/11/1999,1693825854,11,haicheng,CN,40.8516,122.7475,22.68,Natural,Geophysical,Earthquake,Eastern Asia,Asia,
476,1999,21/12/1999,1693825872,12,ca mau,VN,9.1769,105.15,26.53,Natural,Geophysical,Earthquake,South-Eastern Asia,Asia,5
506,1999,27/11/1999,1693825820,11,rongelap,MH,11.1635,166.8941,28.81,Natural,Geophysical,Earthquake,Melanesia,Oceania,12
469,1999,25/01/1999,1693825869,1,male,MV,4.1748,73.5089,28.33,Natural,Geophysical,Earthquake,South America,Americas,1186
470,1999,15/06/1999,1693825870,6,nyaunglebin,MM,17.95,96.7333,28.25,Natural,Geophysical,Earthquake,Central America,Americas,15
472,1999,22/12/1999,1693825834,12,tiaret,DZ,35.371,1.317,36.69,Natural,Geophysical,Earthquake,Northern Africa,Africa,22
473,1999,2/02/1999,1693825801,2,ibiza,ES,38.9088,1.433,29.56,Natural,Geophysical,Earthquake,Southern Europe,Europe,
474,1999,7/09/1999,1693825871,9,aspropyrgos,GR,38.0667,23.5833,29.1,Natural,Geophysical,Earthquake,Southern Europe,Europe,143
519,2000,4/08/2000,1693825885,8,uglegorsk,RU,49.0833,142.0333,14.5,Natural,Geophysical,Earthquake,Eastern Europe,Europe,
521,2000,24/02/2000,1693825864,2,bonga,ET,7.2833,36.2333,22.09,Natural,Geophysical,Volcanic activity,South-Eastern Asia,Asia,
525,2000,6/06/2000,1693825887,6,orta,TR,40.6242,33.1093,20.48,Natural,Geophysical,Earthquake,Western Asia,Asia,2
526,2000,2/10/2000,1693825888,10,leer,DE,53.2316,7.461,23.89,Natural,Geophysical,Earthquake,Eastern Africa,Africa,1
527,2000,3/09/2000,1693825731,9,weihai,CN,37.5017,122.1136,23.52,Natural,Geophysical,Earthquake,Northern America,Americas,
523,2000,6/12/2000,1693825887,12,gumdag,TM,39.2061,54.5906,36.27,Natural,Geophysical,Earthquake,Central Asia,Asia,11
522,2000,30/10/2000,1693825886,10,farkhor,TJ,37.4922,69.4036,35.12,Natural,Geophysical,Earthquake,Central Asia,Asia,
520,2000,16/11/2000,1693825751,11,weno,FM,7.4515,151.8468,26.97,Natural,Geophysical,Earthquake,Melanesia,Oceania,2
524,2000,7/05/2000,1693825887,5,sincik,TR,38.0368,38.6149,27.42,Natural,Geophysical,Earthquake,Western Asia,Asia,1
498,2000,1/07/2000,1693825851,7,shimoda,JP,34.6667,138.95,25.61,Natural,Geophysical,Earthquake,Eastern Asia,Asia,1
458,2000,14/01/2000,1693825844,1,dali,CN,25.7,100.1833,21.47,Natural,Geophysical,Earthquake,Eastern Asia,Asia,7
459,2000,26/01/2000,1693825840,1,zhongshu,CN,24.5167,103.7667,18.54,Natural,Geophysical,Earthquake,Eastern Asia,Asia,1
460,2000,11/01/2000,1693825853,1,xiuyan,CN,40.2928,123.2744,22.15,Natural,Geophysical,Earthquake,Eastern Asia,Asia,
461,2000,6/06/2000,1693825777,6,baiyin,CN,36.5583,104.2081,27,Natural,Geophysical,Earthquake,Eastern Asia,Asia,
462,2000,21/08/2000,1693825854,8,dadukou,CN,26.5479,101.7054,26.33,Natural,Geophysical,Earthquake,Eastern Asia,Asia,1
457,2000,2/01/2000,1693825683,1,cox's bazar,BD,21.4532,91.9798,27.38,Natural,Geophysical,Earthquake,Southern Asia,Asia,
485,2000,4/06/2000,1693825874,6,gua musang,MY,4.8823,101.9644,25.49,Natural,Geophysical,Earthquake,South-Eastern Asia,Asia,103
486,2000,6/10/2000,1693825875,10,matsue,JP,35.4722,133.0506,25.87,Natural,Geophysical,Earthquake,Eastern Asia,Asia,
487,2000,4/05/2000,1693825875,5,gorontalo,ID,0.5412,123.0595,24.68,Natural,Geophysical,Earthquake,South-Eastern Asia,Asia,45
489,2000,26/05/2000,1693825876,5,lefkada,GR,38.8275,20.7019,22.95,Natural,Geophysical,Earthquake,Southern Europe,Europe,
490,2000,16/01/2000,1693825732,1,bamboo flat,IN,11.7,92.7167,28.05,Natural,Geophysical,Volcanic activity,Central America,Americas,
488,2000,8/11/2000,1693825875,11,kanniyakumari,IN,8.0833,77.5667,26.23,Natural,Geophysical,Earthquake,South America,Americas,2
492,2000,25/10/2000,1693825736,10,ca mau,VN,9.1769,105.15,26.53,Natural,Geophysical,Earthquake,South-Eastern Asia,Asia,
493,2000,7/06/2000,1693825874,6,gua musang,MY,4.8823,101.9644,25.49,Natural,Geophysical,Earthquake,South-Eastern Asia,Asia,1
496,2000,21/06/2000,1693825878,6,holmsund,SE,63.706,20.3641,16.97,Natural,Geophysical,Earthquake,Northern Europe,Europe,
497,2000,17/06/2000,1693825878,6,umea,SE,63.8284,20.2597,16.96,Natural,Geophysical,Earthquake,Northern Europe,Europe,
499,2000,31/03/2000,1693825879,3,ito,JP,34.9667,139.0833,24.82,Natural,Geophysical,Volcanic activity,Eastern Asia,Asia,
500,2000,9/08/2000,1693825728,8,vientiane,LA,17.9667,102.6,32.18,Natural,Geophysical,Earthquake,Central America,Americas,
501,2000,18/12/2000,1693825584,12,chiang mai,TH,18.75,99,31.71,Natural,Geophysical,Volcanic activity,Central America,Americas,
502,2000,6/07/2000,1693825723,7,trincomalee,LK,8.5711,81.2335,28.29,Natural,Geophysical,Earthquake,Central America,Americas,7
456,2000,25/11/2000,1693825766,11,baku,AZ,40.3777,49.892,32.03,Natural,Geophysical,Earthquake,Western Asia,Asia,31
491,2000,12/07/2000,1693825876,7,bac lieu,VN,9.285,105.7244,27.14,Natural,Geophysical,Earthquake,South-Eastern Asia,Asia,
575,2001,23/06/2001,1693825903,6,kankauli,IN,16.2667,73.7,26.06,Natural,Geophysical,Earthquake,South America,Americas,145
546,2001,8/10/2001,1693825854,10,birjand,IR,32.8663,59.2211,29.99,Natural,Geophysical,Earthquake,Southern Asia,Asia,
547,2001,18/07/2001,1693825631,7,zafferana etnea,IT,37.6822,15.108,29.33,Natural,Geophysical,Volcanic activity,Southern Europe,Europe,
548,2001,24/03/2001,1693825597,3,kure,JP,34.2333,132.5667,28.04,Natural,Geophysical,Earthquake,Eastern Asia,Asia,2
574,2001,5/06/2001,1693825757,6,weno,FM,7.4515,151.8468,26.97,Natural,Geophysical,Earthquake,Melanesia,Oceania,
576,2001,4/12/2001,1693825903,12,malvan,IN,16.0667,73.4667,27.35,Natural,Geophysical,Earthquake,South America,Americas,2
504,2001,26/01/2001,1693825828,1,bhachau,IN,23.2833,70.35,34.75,Natural,Geophysical,Earthquake,Southern Asia,Asia,20005
578,2001,24/05/2001,1693825904,5,bonga,ET,7.2833,36.2333,22.09,Natural,Geophysical,Volcanic activity,South-Eastern Asia,Asia,
503,2001,13/01/2001,1693825732,1,bamboo flat,IN,11.7,92.7167,28.05,Natural,Geophysical,Earthquake,Central America,Americas,6
580,2001,10/07/2001,1693825894,7,pasinler,TR,39.9803,41.6764,27.55,Natural,Geophysical,Earthquake,Western Asia,Asia,
581,2001,8/06/2001,1693825790,6,utrik,MH,11.2278,169.8474,28.47,Natural,Geophysical,Volcanic activity,Melanesia,Oceania,
582,2001,5/02/2001,1693825905,2,beni,CD,0.5,29.4667,30.94,Natural,Geophysical,Volcanic activity,Middle Africa,Africa,
545,2001,13/02/2001,1693825874,2,gua musang,MY,4.8823,101.9644,25.49,Natural,Geophysical,Earthquake,South-Eastern Asia,Asia,
577,2001,9/08/2001,1693825903,8,karwar,IN,14.8,74.1333,25.8,Natural,Geophysical,Earthquake,South America,Americas,4
544,2001,28/06/2001,1693825686,6,bac lieu,VN,9.285,105.7244,27.14,Natural,Geophysical,Earthquake,South-Eastern Asia,Asia,
579,2001,25/06/2001,1693825904,6,osmaniye,TR,37.0742,36.2478,32.02,Natural,Geophysical,Earthquake,Western Asia,Asia,
542,2001,14/08/2001,1693825630,8,galle,LK,6.0367,80.217,24.69,Natural,Geophysical,Volcanic activity,South America,Americas,
536,2001,27/10/2001,1693825830,10,lijiang,CN,26.8688,100.2207,18.92,Natural,Geophysical,Earthquake,Eastern Asia,Asia,1
528,2001,13/01/2001,1693825732,1,bamboo flat,IN,11.7,92.7167,28.05,Natural,Geophysical,Earthquake,Central America,Americas,844
529,2001,13/02/2001,1693825717,2,bamboo flat,IN,11.7,92.7167,28.05,Natural,Geophysical,Earthquake,Central America,Americas,315
530,2001,12/04/2001,1693825889,4,dali,CN,25.7,100.1833,21.47,Natural,Geophysical,Earthquake,Eastern Asia,Asia,2
534,2001,23/05/2001,1693825830,5,lijiang,CN,26.8688,100.2207,18.92,Natural,Geophysical,Earthquake,Eastern Asia,Asia,2
532,2001,28/02/2001,1693825890,2,nianzishan,CN,47.5167,122.8833,14.79,Natural,Geophysical,Earthquake,Northern America,Americas,1
543,2001,26/07/2001,1693825893,7,aliveri,GR,38.4167,24.0333,27.92,Natural,Geophysical,Earthquake,Southern Europe,Europe,
463,2001,25/02/2001,1693825724,2,jurm,AF,36.8648,70.8342,25.31,Natural,Geophysical,Earthquake,Southern Asia,Asia,
464,2001,23/02/2001,1693825723,2,kangding,CN,30.0513,101.9603,16.06,Natural,Geophysical,Earthquake,Eastern Asia,Asia,3
505,2001,26/01/2001,1693825828,1,bhachau,IN,23.2833,70.35,34.75,Natural,Geophysical,Earthquake,Southern Asia,Asia,12
541,2001,28/06/2001,1693825838,6,limbe,CM,4.0242,9.2149,25.6,Natural,Hydrological,Flood,Middle Africa,Africa,30
535,2001,14/07/2001,1693825668,7,yuxi,CN,24.355,102.5422,19.56,Natural,Geophysical,Earthquake,Eastern Asia,Asia,
585,2002,2/11/2002,1693825906,11,gilgit,PK,35.9221,74.3087,30.37,Natural,Geophysical,Earthquake,Southern Asia,Asia,17
583,2002,31/03/2002,1693825862,3,yilan,TW,24.757,121.753,29.2,Natural,Geophysical,Earthquake,Eastern Asia,Asia,4
584,2002,17/01/2002,1693825906,1,bunia,CD,1.5667,30.25,24.72,Natural,Geophysical,Volcanic activity,Middle Africa,Africa,200
586,2002,20/11/2002,1693825906,11,gilgit,PK,35.9221,74.3087,30.37,Natural,Geophysical,Earthquake,Southern Asia,Asia,19
589,2002,5/03/2002,1693825907,3,maitum,PH,6.0392,124.4986,27.07,Natural,Geophysical,Earthquake,South-Eastern Asia,Asia,15
588,2002,27/11/2002,1693825820,11,rongelap,MH,11.1635,166.8941,28.81,Natural,Geophysical,Earthquake,Melanesia,Oceania,
590,2002,8/09/2002,1693825908,9,vanimo,PG,-2.6741,141.3028,26.44,Natural,Geophysical,Earthquake,Melanesia,Oceania,4
591,2002,3/03/2002,1693825724,3,jurm,AF,36.8648,70.8342,25.31,Natural,Geophysical,Earthquake,Southern Asia,Asia,3
592,2002,10/01/2002,1693825757,1,jayapura,ID,-2.5333,140.7,27.66,Natural,Geophysical,Earthquake,Melanesia,Oceania,1
593,2002,17/01/2002,1693825908,1,wamba,NG,8.9333,8.6,21.64,Natural,Geophysical,Earthquake,Eastern Africa,Africa,45
594,2002,24/04/2002,1693825909,4,gjilan,XK,42.4604,21.4699,17.86,Natural,Geophysical,Earthquake,Southern Europe,Europe,1
595,2002,9/01/2002,1693825909,1,roghun,TJ,38.7826,69.8708,26.79,Natural,Geophysical,Earthquake,Central Asia,Asia,3
596,2002,3/03/2002,1693825724,3,jurm,AF,36.8648,70.8342,25.31,Natural,Geophysical,Earthquake,Central Asia,Asia,
597,2002,3/02/2002,1693825909,2,sultandagi,TR,38.5311,31.2281,23.59,Natural,Geophysical,Earthquake,Western Asia,Asia,42
587,2002,3/01/2002,1693825820,1,rongelap,MH,11.1635,166.8941,28.81,Natural,Geophysical,Earthquake,Melanesia,Oceania,
537,2002,3/03/2002,1693825724,3,jurm,AF,36.8648,70.8342,25.31,Natural,Geophysical,Earthquake,Southern Asia,Asia,150
598,2002,18/05/2002,1693825910,5,kotido,UG,2.9806,34.1331,31.55,Natural,Geophysical,Earthquake,Eastern Africa,Africa,2
552,2002,13/09/2002,1693825717,9,bamboo flat,IN,11.7,92.7167,28.05,Natural,Geophysical,Earthquake,Southern Asia,Asia,2
540,2002,28/05/2002,1693825794,5,kalat,PK,29.0225,66.5916,30.22,Natural,Geophysical,Earthquake,South America,Americas,
539,2002,12/04/2002,1693825722,4,nahrin,AF,36.0649,69.1334,28.77,Natural,Geophysical,Earthquake,Southern Asia,Asia,50
549,2002,10/10/2002,1693825836,10,manokwari,ID,-0.8667,134.0833,26.02,Natural,Geophysical,Earthquake,South-Eastern Asia,Asia,8
550,2002,25/04/2002,1693825617,4,tbilisi,GE,41.6941,44.8337,26.84,Natural,Geophysical,Earthquake,Western Asia,Asia,6
551,2002,31/10/2002,1693825711,10,larino,IT,41.8055,14.9193,22.92,Natural,Geophysical,Earthquake,Southern Europe,Europe,30
553,2002,8/08/2002,1693825721,8,kangding,CN,30.0513,101.9603,16.06,Natural,Geophysical,Earthquake,Eastern Asia,Asia,
554,2002,14/12/2002,1693825834,12,laojunmiao,CN,39.8333,97.7333,27.33,Natural,Geophysical,Earthquake,Eastern Asia,Asia,2
555,2002,2/10/2002,1693825803,10,galle,LK,6.0367,80.217,24.69,Natural,Geophysical,Volcanic activity,South America,Americas,
556,2002,24/08/2002,1693825897,8,al khankah,EG,30.2104,31.3681,31.45,Natural,Geophysical,Earthquake,Northern Africa,Africa,
557,2002,2/12/2002,1693825897,12,gastouni,GR,37.85,21.25,30.02,Natural,Geophysical,Earthquake,Southern Europe,Europe,
559,2002,15/08/2002,1693825875,8,gorontalo,ID,0.5412,123.0595,24.68,Natural,Geophysical,Earthquake,South-Eastern Asia,Asia,
560,2002,20/09/2002,1693825836,9,manokwari,ID,-0.8667,134.0833,26.02,Natural,Geophysical,Earthquake,South-Eastern Asia,Asia,
558,2002,13/02/2002,1693825717,2,bamboo flat,IN,11.7,92.7167,28.05,Natural,Geophysical,Volcanic activity,Central America,Americas,
562,2002,17/02/2002,1693825755,2,firuzabad,IR,28.8438,52.5707,37.01,Natural,Geophysical,Earthquake,Southern Asia,Asia,1
538,2002,25/03/2002,1693825892,3,nahrin,AF,36.0649,69.1334,28.77,Natural,Geophysical,Earthquake,Southern Asia,Asia,1000
569,2002,6/02/2002,1693825837,2,muang phonsavan,LA,19.45,103.2167,20.89,Natural,Geophysical,Volcanic activity,Central America,Americas,
561,2002,2/11/2002,1693825898,11,sinabang,ID,2.4803,96.3801,25.36,Natural,Geophysical,Earthquake,South-Eastern Asia,Asia,3
567,2002,29/10/2002,1693825900,10,riposto,IT,37.7306,15.2009,32.45,Natural,Geophysical,Earthquake,Southern Europe,Europe,
568,2002,6/09/2002,1693825901,9,santa flavia,IT,38.085,13.5351,30.35,Natural,Geophysical,Earthquake,Southern Europe,Europe,2
565,2002,24/12/2002,1693825899,12,sonqor,IR,34.7837,47.6004,32.94,Natural,Geophysical,Earthquake,Southern Asia,Asia,
564,2002,22/06/2002,1693825900,6,abhar,IR,36.1468,49.218,33.11,Natural,Geophysical,Earthquake,Southern Asia,Asia,227
563,2002,24/04/2002,1693825899,4,sonqor,IR,34.7837,47.6004,32.94,Natural,Geophysical,Earthquake,Southern Asia,Asia,2
566,2002,25/09/2002,1693825900,9,masjed soleyman,IR,31.9364,49.3039,45,Natural,Geophysical,Earthquake,Southern Asia,Asia,
624,2003,27/05/2003,1693825765,5,boumerdas,DZ,36.7664,3.4772,31.08,Natural,Geophysical,Earthquake,Northern Africa,Africa,9
625,2003,27/05/2003,1693825918,5,tobelo,ID,1.7284,128.0095,27.03,Natural,Geophysical,Earthquake,South-Eastern Asia,Asia,1
626,2003,11/08/2003,1693825918,8,tobelo,ID,1.7284,128.0095,27.03,Natural,Geophysical,Earthquake,South-Eastern Asia,Asia,
627,2003,3/07/2003,1693825733,7,torbat-e jam,IR,35.244,60.6225,30.44,Natural,Geophysical,Earthquake,Southern Asia,Asia,
628,2003,10/07/2003,1693825792,7,darab,IR,28.7519,54.5444,39.32,Natural,Geophysical,Earthquake,Southern Asia,Asia,1
623,2003,25/12/2003,1693825630,12,batticaloa,LK,7.7102,81.6924,27.58,Natural,Geophysical,Earthquake,Central America,Americas,2
622,2003,26/11/2003,1693825844,11,zhaotong,CN,27.3167,103.7167,18.49,Natural,Geophysical,Earthquake,Eastern Asia,Asia,
629,2003,26/12/2003,1693825834,12,bam,IR,29.106,58.357,36.22,Natural,Geophysical,Earthquake,Southern Asia,Asia,26796
573,2003,11/01/2003,1693825873,1,kazerun,IR,29.6195,51.6541,39.74,Natural,Geophysical,Earthquake,Southern Asia,Asia,
631,2003,23/05/2003,1693825920,5,lugovoy,KZ,42.9472,72.7644,18.39,Natural,Geophysical,Earthquake,Central Asia,Asia,3
663,2003,13/08/2003,1693825805,8,jaffna,LK,9.6685,80.0074,28.63,Natural,Geophysical,Earthquake,Central America,Americas,
668,2003,22/12/2003,1693825766,12,qingdao,CN,36.0986,120.3719,25.31,Natural,Geophysical,Earthquake,Northern America,Americas,2
667,2003,10/04/2003,1693825659,4,seferihisar,TR,38.1969,26.839,30.57,Natural,Geophysical,Earthquake,Western Asia,Asia,
620,2003,14/11/2003,1693825916,11,zhaotong,CN,27.3167,103.7167,18.49,Natural,Geophysical,Earthquake,Eastern Asia,Asia,4
666,2003,26/07/2003,1693825931,7,buldan,TR,38.045,28.8306,29.9,Natural,Geophysical,Earthquake,Western Asia,Asia,
665,2003,1/05/2003,1693825931,5,bingol,TR,38.8847,40.4939,31.29,Natural,Geophysical,Earthquake,Western Asia,Asia,177
664,2003,25/12/2003,1693825630,12,batticaloa,LK,7.7102,81.6924,27.58,Natural,Geophysical,Earthquake,Central America,Americas,2
630,2003,11/12/2003,1693825900,12,masjed soleyman,IR,31.9364,49.3039,45,Natural,Geophysical,Earthquake,Southern Asia,Asia,
619,2003,13/11/2003,1693825860,11,linxia chengguanzhen,CN,35.6003,103.2064,24.36,Natural,Geophysical,Earthquake,Eastern Asia,Asia,1
613,2003,5/06/2003,1693825630,6,galle,LK,6.0367,80.217,24.69,Natural,Geophysical,Volcanic activity,South America,Americas,
617,2003,16/10/2003,1693825828,10,dadukou,CN,26.5479,101.7054,26.33,Natural,Geophysical,Earthquake,Eastern Asia,Asia,3
572,2003,23/01/2003,1693825902,1,panacan,PH,9.2463,118.4082,27.81,Natural,Geophysical,Earthquake,South-Eastern Asia,Asia,
571,2003,24/02/2003,1693825860,2,shache,CN,38.4167,77.2406,31.81,Natural,Geophysical,Earthquake,Eastern Asia,Asia,268
570,2003,22/01/2003,1693825901,1,pakxan,LA,18.3778,103.6601,27.05,Natural,Geophysical,Earthquake,Central America,Americas,29
599,2003,10/04/2003,1693825910,4,parun,AF,35.4207,70.9221,19.27,Natural,Geophysical,Earthquake,Southern Asia,Asia,1
600,2003,26/07/2003,1693825662,7,khagrachhari,BD,23.1,91.9667,27.59,Natural,Geophysical,Earthquake,Southern Asia,Asia,2
618,2003,25/10/2003,1693825843,10,zhangye,CN,38.9342,100.4517,33.67,Natural,Geophysical,Earthquake,Eastern Asia,Asia,9
601,2003,27/01/2003,1693825911,1,cimin,TR,39.7101,39.7021,29.04,Natural,Geophysical,Earthquake,Western Asia,Asia,1
605,2003,26/05/2003,1693825912,5,ofunato,JP,39.0717,141.7167,23.48,Natural,Geophysical,Earthquake,Eastern Asia,Asia,
606,2003,25/09/2003,1693825668,9,obihiro,JP,42.9172,143.2044,22.67,Natural,Geophysical,Earthquake,Eastern Asia,Asia,2
662,2003,27/09/2003,1693825930,9,kosh-agach,RU,50,88.6667,18.08,Natural,Geophysical,Earthquake,Eastern Europe,Europe,3
608,2003,22/09/2003,1693825816,9,diu,IN,20.7141,70.9822,29.15,Natural,Geophysical,Earthquake,Caribbean,Americas,3
609,2003,14/08/2003,1693825913,8,preveza,GR,38.95,20.75,22.95,Natural,Geophysical,Earthquake,Southern Europe,Europe,
616,2003,16/08/2003,1693825915,8,chifeng,CN,42.2683,118.9636,22.92,Natural,Geophysical,Earthquake,Eastern Asia,Asia,4
615,2003,4/05/2003,1693825915,5,shache,CN,38.4167,77.2406,31.81,Natural,Geophysical,Earthquake,Eastern Asia,Asia,1
614,2003,17/04/2003,1693825834,4,laojunmiao,CN,39.8333,97.7333,27.33,Natural,Geophysical,Earthquake,Eastern Asia,Asia,
610,2003,11/04/2003,1693825913,4,serravalle scrivia,IT,44.7228,8.8564,28.31,Natural,Geophysical,Earthquake,Southern Europe,Europe,
612,2003,21/05/2003,1693825914,5,thenia,DZ,36.7254,3.5567,29.16,Natural,Geophysical,Earthquake,Northern Africa,Africa,2266
611,2003,25/07/2003,1693825914,7,matsushima,JP,38.3736,141.0611,25.88,Natural,Geophysical,Earthquake,Eastern Asia,Asia,
607,2003,21/07/2003,1693825854,7,dadukou,CN,26.5479,101.7054,26.33,Natural,Geophysical,Earthquake,Eastern Asia,Asia,16
669,2004,14/02/2004,1693825932,2,battagram,PK,34.6772,73.0233,28.5,Natural,Geophysical,Earthquake,Southern Asia,Asia,24
670,2004,12/07/2004,1693825834,7,kobarid,SI,46.2481,13.5772,25.99,Natural,Geophysical,Earthquake,Southern Europe,Europe,1
671,2004,1/04/2004,1693825932,4,panjakent,TJ,39.4952,67.6093,26.34,Natural,Geophysical,Earthquake,Central Asia,Asia,
673,2004,26/12/2004,1693825912,12,meulaboh,ID,4.1363,96.1285,25.58,Natural,Geophysical,Earthquake,Southern Asia,Asia,102
674,2004,26/12/2004,1693825912,12,meulaboh,ID,4.1363,96.1285,25.58,Natural,Geophysical,Earthquake,South-Eastern Asia,Asia,80
675,2004,26/12/2004,1693825912,12,meulaboh,ID,4.1363,96.1285,25.58,Natural,Geophysical,Earthquake,South-Eastern Asia,Asia,8345
676,2004,24/02/2004,1693825934,2,'ain el melh,DZ,34.8415,4.1638,31.07,Natural,Geophysical,Earthquake,Northern Africa,Africa,628
677,2004,26/12/2004,1693825912,12,meulaboh,ID,4.1363,96.1285,25.58,Natural,Geophysical,Earthquake,South-Eastern Asia,Asia,71
679,2004,26/12/2004,1693825912,12,meulaboh,ID,4.1363,96.1285,25.58,Natural,Geophysical,Earthquake,Eastern Africa,Africa,298
681,2004,25/03/2004,1693825933,3,askale,TR,39.9208,40.695,27.64,Natural,Geophysical,Earthquake,Western Asia,Asia,9
682,2004,1/07/2004,1693825935,7,igdir,TR,39.9237,44.045,32.96,Natural,Geophysical,Earthquake,Western Asia,Asia,18
683,2004,26/12/2004,1693825912,12,meulaboh,ID,4.1363,96.1285,25.58,Natural,Geophysical,Earthquake,Eastern Africa,Africa,10
672,2004,28/03/2004,1693825933,3,askale,TR,39.9208,40.695,27.64,Natural,Geophysical,Earthquake,Western Asia,Asia,
680,2004,26/12/2004,1693825912,12,meulaboh,ID,4.1363,96.1285,25.58,Natural,Geophysical,Earthquake,Eastern Africa,Africa,3
678,2004,31/05/2004,1693825647,5,kholmsk,RU,47.0511,142.0569,14.21,Natural,Geophysical,Earthquake,Eastern Europe,Europe,
639,2004,26/12/2004,1693825912,12,meulaboh,ID,4.1363,96.1285,25.58,Natural,Geophysical,Earthquake,Eastern Africa,Africa,1
633,2004,5/02/2004,1693825755,2,angaur state,PW,6.906,134.13,27.84,Natural,Geophysical,Earthquake,South-Eastern Asia,Asia,37
634,2004,26/11/2004,1693825755,11,angaur state,PW,6.906,134.13,27.84,Natural,Geophysical,Earthquake,South-Eastern Asia,Asia,32
635,2004,20/11/2004,1693825778,11,vakarai,LT,55.6035,23.8213,21.29,Natural,Geophysical,Earthquake,Central America,Americas,8
636,2004,11/11/2004,1693825922,11,kibangay,PH,8.0497,124.8931,18.71,Natural,Geophysical,Earthquake,South-Eastern Asia,Asia,33
637,2004,28/05/2004,1693825882,5,nowshahr,IR,36.649,51.496,28.79,Natural,Geophysical,Earthquake,Southern Asia,Asia,35
632,2004,23/10/2004,1693825883,10,ojiya,JP,37.3,138.8,27.86,Natural,Geophysical,Earthquake,Eastern Asia,Asia,40
638,2004,26/12/2004,1693825912,12,meulaboh,ID,4.1363,96.1285,25.58,Natural,Geophysical,Earthquake,South-Eastern Asia,Asia,165708
604,2004,26/12/2004,1693825912,12,meulaboh,ID,4.1363,96.1285,25.58,Natural,Geophysical,Earthquake,Southern Asia,Asia,2
640,2004,24/03/2004,1693825844,3,xilin hot,CN,43.9667,116.0333,21.73,Natural,Geophysical,Earthquake,Eastern Asia,Asia,
641,2004,10/08/2004,1693825916,8,zhaotong,CN,27.3167,103.7167,18.49,Natural,Geophysical,Earthquake,Eastern Asia,Asia,4
642,2004,18/10/2004,1693825889,10,dali,CN,25.7,100.1833,21.47,Natural,Geophysical,Earthquake,Eastern Asia,Asia,
643,2004,7/09/2004,1693825679,9,linxia chengguanzhen,CN,35.6003,103.2064,24.36,Natural,Geophysical,Earthquake,Eastern Asia,Asia,
644,2004,4/05/2004,1693825834,5,laojunmiao,CN,39.8333,97.7333,27.33,Natural,Geophysical,Earthquake,Eastern Asia,Asia,
646,2004,15/11/2004,1693825925,11,ambalangoda,LK,6.2355,80.0538,25.02,Natural,Geophysical,Earthquake,South America,Americas,
647,2004,5/12/2004,1693825925,12,elzach,DE,48.1833,8.0667,26.75,Natural,Geophysical,Earthquake,Western Europe,Europe,
649,2004,10/01/2004,1693825926,1,boumerdas,DZ,36.7664,3.4772,30.08,Natural,Geophysical,Earthquake,Northern Africa,Africa,
650,2004,1/12/2004,1693825926,12,boumerdas,DZ,36.7664,3.4772,30.08,Natural,Geophysical,Earthquake,Northern Africa,Africa,
652,2004,1/01/2004,1693825736,1,balabac,PH,7.9868,117.0645,28.34,Natural,Geophysical,Earthquake,South-Eastern Asia,Asia,1
653,2004,16/02/2004,1693825927,2,payakumbuh,ID,-0.2202,100.6308,23.76,Natural,Geophysical,Earthquake,South-Eastern Asia,Asia,5
654,2004,26/12/2004,1693825912,12,meulaboh,ID,4.1363,96.1285,25.58,Natural,Geophysical,Earthquake,Southern Asia,Asia,16389
655,2004,26/12/2004,1693825912,12,meulaboh,ID,4.1363,96.1285,25.58,Natural,Geophysical,Earthquake,Southern Asia,Asia,35399
603,2004,24/02/2004,1693825911,2,watsa,CD,3.0372,29.5355,26.5,Natural,Geophysical,Earthquake,Eastern Africa,Africa,3
602,2004,18/07/2004,1693825911,7,gardez,AF,33.5974,69.2259,27.68,Natural,Geophysical,Earthquake,Southern Asia,Asia,2
645,2004,18/08/2004,1693825924,8,muli,MV,2.9167,73.5667,28.52,Natural,Geophysical,Earthquake,South America,Americas,1
827,2005,13/06/2005,1693825943,6,mangrol,IN,21.1167,70.1167,29.17,Natural,Geophysical,Earthquake,South America,Americas,
702,2005,27/11/2005,1693825864,11,qeshm,IR,26.9581,56.2719,33.93,Natural,Geophysical,Earthquake,Southern Asia,Asia,13
700,2005,5/08/2005,1693825844,8,zhaotong,CN,27.3167,103.7167,18.49,Natural,Geophysical,Earthquake,Eastern Asia,Asia,
703,2005,13/03/2005,1693825944,3,iranshahr,IR,27.2025,60.6848,42.48,Natural,Geophysical,Earthquake,Southern Asia,Asia,
835,2005,5/12/2005,1693825984,12,rumbek,SS,6.802,29.6912,36.06,Natural,Geophysical,Earthquake,Middle Africa,Africa,6
657,2005,19/04/2005,1693825928,4,maebaru-chuo,JP,33.55,130.2,29.31,Natural,Geophysical,Earthquake,Eastern Asia,Asia,
833,2005,5/12/2005,1693825984,12,rumbek,SS,6.802,29.6912,36.06,Natural,Geophysical,Earthquake,Eastern Africa,Africa,2
832,2005,6/06/2005,1693825984,6,karliova,TR,39.2983,41.0142,25.34,Natural,Geophysical,Earthquake,Western Asia,Asia,
699,2005,26/11/2005,1693825943,11,wuxue,CN,29.8506,115.5525,24.95,Natural,Geophysical,Earthquake,Eastern Asia,Asia,16
831,2005,1/10/2005,1693825717,10,bamboo flat,IN,11.7,92.7167,28.05,Natural,Geophysical,Volcanic activity,Central America,Americas,2
830,2005,2/06/2005,1693825795,6,lorengau,PG,-2.0226,147.2712,26.93,Natural,Geophysical,Volcanic activity,Melanesia,Oceania,
829,2005,4/06/2005,1693825757,6,weno,FM,7.4515,151.8468,26.97,Natural,Geophysical,Earthquake,Melanesia,Oceania,1
828,2005,26/09/2005,1693825982,9,manavalakurichi,IN,8.1333,77.3,25.33,Natural,Geophysical,Earthquake,South America,Americas,5
834,2005,27/11/2005,1693825790,11,utrik,MH,11.2278,169.8474,28.47,Natural,Geophysical,Volcanic activity,Melanesia,Oceania,
698,2005,13/06/2005,1693825943,6,mangrol,IN,21.1167,70.1167,29.17,Natural,Geophysical,Earthquake,South America,Americas,11
826,2005,8/10/2005,1693825937,10,muzaffarabad,PK,34.37,73.4711,31.63,Natural,Geophysical,Earthquake,Southern Asia,Asia,73338
687,2005,9/03/2005,1693825854,3,al bawiti,EG,28.3492,28.8659,33.74,Natural,Geophysical,Earthquake,Southern Africa,Africa,2
658,2005,28/03/2005,1693825929,3,singkil,ID,-7.9855,111.4161,22.59,Natural,Geophysical,Earthquake,South-Eastern Asia,Asia,915
659,2005,23/01/2005,1693825642,1,palu,ID,-0.8917,119.8707,25.13,Natural,Geophysical,Earthquake,South-Eastern Asia,Asia,1
656,2005,20/03/2005,1693825928,3,maebaru-chuo,JP,33.55,130.2,29.31,Natural,Geophysical,Earthquake,Eastern Asia,Asia,1
689,2005,13/12/2005,1693825938,12,ashkasham,AF,36.6833,71.5333,16.15,Natural,Geophysical,Earthquake,Southern Asia,Asia,5
660,2005,10/01/2005,1693825888,1,gorgan,IR,36.8387,54.4348,35.2,Natural,Geophysical,Earthquake,Southern Asia,Asia,
661,2005,22/02/2005,1693825929,2,zarand,IR,30.8127,56.564,32.05,Natural,Geophysical,Earthquake,Southern Asia,Asia,612
684,2005,5/05/2005,1693825732,5,bamboo flat,IN,11.7,92.7167,28.05,Natural,Geophysical,Earthquake,Central America,Americas,1
685,2005,25/01/2005,1693825936,1,hakkari,TR,37.5833,44.1667,28.88,Natural,Geophysical,Earthquake,Western Asia,Asia,2
686,2005,14/03/2005,1693825937,3,karliova,TR,39.2983,41.0142,25.34,Natural,Geophysical,Earthquake,Western Asia,Asia,
688,2005,8/10/2005,1693825937,10,muzaffarabad,PK,34.37,73.4711,31.63,Natural,Geophysical,Earthquake,Southern Asia,Asia,1
697,2005,8/10/2005,1693825937,10,muzaffarabad,PK,34.37,73.4711,31.63,Natural,Geophysical,Earthquake,Southern Asia,Asia,1309
871,2006,2/07/2006,1693825995,7,bilohirsk,UA,45.05,34.6,26.64,Natural,Hydrological,Flood,Eastern Europe,Europe,2
870,2006,7/04/2006,1693825994,4,balcesti,RO,44.6167,23.95,18.95,Natural,Hydrological,Flood,Eastern Europe,Europe,
869,2006,21/02/2006,1693825994,2,glogovac,RS,44.0397,21.3164,17.57,Natural,Hydrological,Flood,Southern Europe,Europe,
868,2006,4/06/2006,1693825822,6,bodaybo,RU,57.8506,114.1933,11.91,Natural,Hydrological,Flood,Eastern Europe,Europe,
948,2006,20/02/2006,1693826020,2,dhamar,YE,14.5427,44.4051,25.76,Natural,Hydrological,Flood,Western Asia,Asia,5
866,2006,21/10/2006,1693825993,10,new corella,PH,7.6,125.8667,24.89,Natural,Hydrological,Flood,South-Eastern Asia,Asia,2
865,2006,24/02/2006,1693825993,2,bardai,NG,11.65,7.2333,27.05,Natural,Hydrological,Flood,Southern Africa,Africa,5
872,2006,10/08/2006,1693825995,8,takeo,KH,10.9167,104.8333,28.64,Natural,Hydrological,Flood,South-Eastern Asia,Asia,5
867,2006,7/04/2006,1693825994,4,balcesti,RO,44.6167,23.95,18.95,Natural,Hydrological,Flood,Eastern Europe,Europe,
873,2006,24/07/2006,1693825903,7,sanming,CN,26.2486,117.6186,25.32,Natural,Meteorological,Storm,South-Eastern Asia,Asia,4
879,2006,29/04/2006,1693825998,4,myanaung,MM,18.2833,95.3167,25.61,Natural,Meteorological,Storm,South-Eastern Asia,Asia,34
875,2006,11/05/2006,1693825985,5,karatau,KZ,43.1667,70.4667,23.31,Natural,Hydrological,Flood,Northern America,Americas,2
876,2006,22/09/2006,1693825997,9,korla,CN,41.7597,86.1469,34.91,Natural,Hydrological,Flood,Northern America,Americas,14
877,2006,3/04/2006,1693825997,4,sanaa,YE,15.3547,44.2067,28.15,Natural,Hydrological,Flood,Western Asia,Asia,25
878,2006,25/10/2006,1693825998,10,xiaoweizhai,CN,26.1903,107.5125,22.5,Natural,Meteorological,Storm,Central America,Americas,4
864,2006,8/04/2006,1693825993,4,berberati,CF,4.2612,15.7922,24.44,Natural,Hydrological,Flood,Middle Africa,Africa,1
880,2006,26/08/2006,1693825965,8,tikapur,NP,28.5,81.1333,34.59,Natural,Hydrological,Landslide,Southern Asia,Asia,147
881,2006,2/08/2006,1693825970,8,leh,IN,34.1667,77.5833,19.11,Natural,Meteorological,Storm,Northern America,Americas,6
882,2006,30/11/2006,1693825912,11,can gio,VN,10.4167,106.9667,27.81,Natural,Meteorological,Storm,South-Eastern Asia,Asia,95
883,2006,4/04/2006,1693826000,4,marsabit,KE,2.3284,37.9899,27.1,Natural,Hydrological,Flood,Eastern Africa,Africa,60
884,2006,15/10/2006,1693826000,10,moyale,KE,3.5167,39.0584,28.07,Natural,Hydrological,Flood,Eastern Africa,Africa,30
885,2006,26/12/2006,1693825746,12,balykchy,KG,42.4557,76.1861,20.62,Natural,Geophysical,Earthquake,Central Asia,Asia,
874,2006,30/06/2006,1693825996,6,cuyapo,PH,15.7819,120.6647,26.12,Natural,Meteorological,Storm,South-Eastern Asia,Asia,8
863,2006,12/08/2006,1693825992,8,kwang binh,VN,17.4833,106.6,27.13,Natural,Hydrological,Flood,South-Eastern Asia,Asia,42
857,2006,22/10/2006,1693825944,10,ajaccio,FR,42,8.9167,28.03,Natural,Hydrological,Flood,Southern Europe,Europe,
861,2006,20/08/2006,1693825957,8,dok kham tai,TH,19.1624,99.9934,27.91,Natural,Hydrological,Flood,South-Eastern Asia,Asia,164
836,2006,4/04/2006,1693825843,4,zhangye,CN,38.9342,100.4517,33.67,Natural,Hydrological,Flood,Northern America,Americas,1
837,2006,14/03/2006,1693825828,3,jinghong,CN,21.991,100.7341,28.08,Natural,Hydrological,Flood,Northern America,Americas,7
838,2006,2/09/2006,1693825985,9,lianzhou,CN,24.7811,112.3825,24.51,Natural,Meteorological,Storm,Central America,Americas,7
839,2006,16/09/2006,1693825840,9,baise city,CN,23.8997,106.6133,26.15,Natural,Meteorological,Storm,Central America,Americas,4
840,2006,11/07/2006,1693825946,7,huaicheng,CN,23.9051,112.1931,26.76,Natural,Meteorological,Storm,South-Eastern Asia,Asia,37
841,2006,27/09/2006,1693825744,9,dong ha,VN,16.8163,107.1003,27.33,Natural,Meteorological,Storm,South-Eastern Asia,Asia,228
842,2006,30/10/2006,1693825986,10,naguilian,PH,17.0231,121.837,26.94,Natural,Meteorological,Storm,South-Eastern Asia,Asia,34
843,2006,11/07/2006,1693825946,7,huaicheng,CN,23.9051,112.1931,26.76,Natural,Meteorological,Storm,South-Eastern Asia,Asia,17
844,2006,15/10/2006,1693825773,10,enewetak,MH,11.3474,162.3373,28.8,Natural,Geophysical,Earthquake,Northern America,Americas,
845,2006,21/11/2006,1693825987,11,keelakarai,IN,9.2333,78.7833,29.44,Natural,Hydrological,Flood,Central America,Americas,11
846,2006,30/11/2006,1693825912,11,can gio,VN,10.4167,106.9667,27.81,Natural,Meteorological,Storm,South-Eastern Asia,Asia,1399
847,2006,19/06/2006,1693825947,6,nagahama,JP,35.3833,136.2667,28.32,Natural,Hydrological,Flood,Eastern Asia,Asia,34
848,2006,22/07/2006,1693825988,7,sueyoshicho-ninokata,JP,31.65,131.0167,28.83,Natural,Hydrological,Flood,Eastern Asia,Asia,8
849,2006,12/07/2006,1693825840,7,hanam,KR,37.54,127.2056,26.79,Natural,Hydrological,Flood,Eastern Asia,Asia,46
851,2006,19/12/2006,1693825827,12,kampung simpang renggam,MY,1.8278,103.3,26.33,Natural,Hydrological,Flood,South-Eastern Asia,Asia,6
852,2006,24/07/2006,1693825972,7,baffa,PK,34.4378,73.2194,30.48,Natural,Hydrological,Flood,Southern Asia,Asia,40
853,2006,27/12/2006,1693825990,12,mondragon,PH,12.5157,124.7523,28.27,Natural,Hydrological,Flood,South-Eastern Asia,Asia,
854,2006,12/04/2006,1693825990,4,vanimo,PG,-2.6741,141.3028,26.44,Natural,Hydrological,Flood,Melanesia,Oceania,
855,2006,27/04/2006,1693825743,4,colonia,DE,50.9333,6.95,25.32,Natural,Hydrological,Landslide,Melanesia,Oceania,1
856,2006,12/07/2006,1693825840,7,hanam,KR,37.54,127.2056,26.79,Natural,Hydrological,Flood,Eastern Asia,Asia,278
858,2006,20/06/2006,1693825827,6,kharabali,RU,47.4196,47.2568,27.1,Natural,Hydrological,Flood,Eastern Europe,Europe,14
859,2006,4/04/2006,1693825991,4,padina,RS,45.1181,20.7272,22.92,Natural,Hydrological,Flood,Southern Europe,Europe,
860,2006,22/05/2006,1693825992,5,phrae,TH,18.0833,100,26.17,Natural,Hydrological,Flood,South-Eastern Asia,Asia,116
862,2006,25/06/2006,1693825981,6,at-bashi,KG,41.1702,75.8106,18.82,Natural,Hydrological,Flood,Northern America,Americas,11
887,2006,26/05/2006,1693825939,5,metlili chaamba,DZ,32.2667,3.6333,33.52,Natural,Hydrological,Flood,Northern Africa,Africa,6
889,2006,3/08/2006,1693825953,8,ayorou,NE,14.7308,0.9174,33.17,Natural,Hydrological,Flood,Western Africa,Africa,1
890,2006,15/09/2006,1693826002,9,taungdwingyi,MM,20.0167,95.55,29.51,Natural,Hydrological,Flood,South-Eastern Asia,Asia,25
923,2006,26/10/2006,1693825723,10,beledweyne,SO,4.7358,45.2036,36.71,Natural,Hydrological,Flood,Eastern Africa,Africa,52
924,2006,23/10/2006,1693826013,10,wajir,KE,1.7471,40.0573,33.85,Natural,Hydrological,Flood,Eastern Africa,Africa,35
925,2006,7/05/2006,1693826013,5,la passe,FR,45.5549,-0.8967,33.13,Natural,Hydrological,Flood,South America,Americas,3
926,2006,28/03/2006,1693826013,3,banska bystrica,SK,48.5,19.5,22.39,Natural,Hydrological,Flood,Eastern Europe,Europe,1
927,2006,4/06/2006,1693826009,6,krynica-zdroj,PL,49.4222,20.9594,18.15,Natural,Hydrological,Flood,Eastern Europe,Europe,
928,2006,5/09/2006,1693826014,9,bongor,TD,10.2806,15.3722,25.81,Natural,Hydrological,Flood,Middle Africa,Africa,52
929,2006,10/02/2006,1693826004,2,jerantut,MY,3.936,102.3626,25.23,Natural,Hydrological,Flood,South-Eastern Asia,Asia,
930,2006,29/07/2006,1693825825,7,qarawul,AF,37.2202,68.7804,36.08,Natural,Geophysical,Earthquake,Central Asia,Asia,3
931,2006,27/10/2006,1693826015,10,siverek,TR,37.755,39.3167,33.35,Natural,Hydrological,Flood,Western Asia,Asia,47
932,2006,1/07/2006,1693826015,7,ilica,TR,39.9463,41.1091,26.96,Natural,Hydrological,Flood,Western Asia,Asia,12
933,2006,26/12/2006,1693825998,12,hengchun,TW,22.0042,120.7439,27.22,Natural,Geophysical,Earthquake,Eastern Asia,Asia,2
934,2006,10/06/2006,1693825804,6,taichung,TW,24.1469,120.6839,28.6,Natural,Hydrological,Flood,Eastern Asia,Asia,3
922,2006,24/08/2006,1693826012,8,mahaddayweyne,SO,2.9726,45.5347,34.32,Natural,Hydrological,Flood,Eastern Africa,Africa,5
935,2006,24/07/2006,1693825903,7,sanming,CN,26.2486,117.6186,25.32,Natural,Meteorological,Storm,Eastern Asia,Asia,
937,2006,12/08/2006,1693826016,8,sironko,UG,1.2313,34.2477,30.56,Natural,Hydrological,Flood,Eastern Africa,Africa,3
938,2006,23/10/2006,1693826013,10,wajir,KE,1.7471,40.0573,33.85,Natural,Hydrological,Flood,Eastern Africa,Africa,
940,2006,27/07/2006,1693825846,7,langzhong,CN,31.5504,105.9938,29.25,Natural,Hydrological,Flood,Northern America,Americas,
941,2006,27/07/2006,1693826018,7,aksu,CN,41.1231,80.2644,27.74,Natural,Hydrological,Flood,Northern America,Americas,1
942,2006,19/08/2006,1693825800,8,tura,IN,25.5198,90.2201,28.57,Natural,Hydrological,Flood,Northern America,Americas,
943,2006,9/10/2006,1693826019,10,susuman,RU,62.7833,148.1667,1.1,Natural,Hydrological,Flood,Northern America,Americas,
944,2006,5/11/2006,1693826019,11,zhalantun,CN,48,122.7167,14.3,Natural,Hydrological,Flood,Northern America,Americas,2
945,2006,10/08/2006,1693825995,8,takeo,KH,10.9167,104.8333,28.64,Natural,Hydrological,Flood,South-Eastern Asia,Asia,60
946,2006,27/09/2006,1693825744,9,dong ha,VN,16.8163,107.1003,27.33,Natural,Meteorological,Storm,South-Eastern Asia,Asia,71
947,2006,9/05/2006,1693825790,5,utrik,MH,11.2278,169.8474,28.47,Natural,Geophysical,Volcanic activity,Melanesia,Oceania,
950,2006,2/08/2006,1693826021,8,ierapetra,GR,35.01,25.7353,28.9,Natural,Hydrological,Flood,Southern Africa,Africa,6
949,2006,26/03/2006,1693825859,3,siwa oasis,EG,29.2041,25.5195,31.67,Natural,Hydrological,Flood,Southern Africa,Africa,6
936,2006,9/05/2006,1693826016,5,marsabit,KE,2.3284,37.9899,27.1,Natural,Hydrological,Flood,Eastern Africa,Africa,
888,2006,27/07/2006,1693825846,7,langzhong,CN,31.5504,105.9938,29.25,Natural,Hydrological,Flood,Central America,Americas,
921,2006,4/08/2006,1693826012,8,jawhar,SO,2.7809,45.5005,33.62,Natural,Hydrological,Flood,Eastern Africa,Africa,5
919,2006,13/08/2006,1693825967,8,al hawatah,SD,13.4167,34.6333,32.9,Natural,Hydrological,Flood,Northern Africa,Africa,27
891,2006,22/02/2006,1693826002,2,gebeit,SD,21.0667,36.3167,40.61,Natural,Geophysical,Earthquake,Eastern Africa,Africa,4
892,2006,3/08/2006,1693825953,8,ayorou,NE,14.7308,0.9174,33.17,Natural,Hydrological,Flood,Western Africa,Africa,
893,2006,22/07/2006,1693826003,7,mao,ES,39.8885,4.2658,28.31,Natural,Hydrological,Flood,Western Africa,Africa,7
894,2006,27/11/2006,1693826003,11,shendi,SD,16.6915,33.4341,40.48,Natural,Hydrological,Flood,Eastern Africa,Africa,5
895,2006,7/03/2006,1693826003,3,al qadarif,SD,14.0349,35.3834,33.05,Natural,Hydrological,Flood,Eastern Africa,Africa,3
896,2006,10/02/2006,1693826004,2,jerantut,MY,3.936,102.3626,25.23,Natural,Hydrological,Flood,South-Eastern Asia,Asia,
897,2006,20/04/2006,1693825820,4,gua musang,MY,4.8823,101.9644,25.49,Natural,Hydrological,Flood,South-Eastern Asia,Asia,
898,2006,3/08/2006,1693825953,8,ayorou,NE,14.7308,0.9174,33.17,Natural,Hydrological,Flood,Western Africa,Africa,
899,2006,15/07/2006,1693826005,7,auchi,NG,7.0667,6.2667,24.97,Natural,Hydrological,Flood,Western Africa,Africa,
900,2006,24/06/2006,1693825972,6,muhammadabad,IN,25.6333,83.75,35.05,Natural,Hydrological,Flood,Southern Asia,Asia,
901,2006,26/04/2006,1693825780,4,petropavlovsk-kamchatsky,RU,53.0452,158.6483,9.88,Natural,Hydrological,Flood,Australia and New Zealand,Oceania,
902,2006,31/08/2006,1693825951,8,kharian,PK,32.8149,73.8636,37.48,Natural,Hydrological,Flood,Southern Asia,Asia,20
920,2006,17/12/2006,1693825732,12,bamboo flat,IN,11.7,92.7167,28.05,Natural,Geophysical,Earthquake,Central America,Americas,
903,2006,9/07/2006,1693825939,7,khost,AF,33.3395,69.9204,32.61,Natural,Hydrological,Flood,Southern Asia,Asia,13
906,2006,3/07/2006,1693826007,7,thal,PK,35.4791,72.2439,22.32,Natural,Hydrological,Landslide,Southern Asia,Asia,29
907,2006,27/03/2006,1693825800,3,ratnagiri,IN,16.9833,73.3,28.13,Natural,Geophysical,Volcanic activity,South America,Americas,
908,2006,13/08/2006,1693825864,8,bonga,ET,7.2833,36.2333,22.09,Natural,Geophysical,Volcanic activity,South-Eastern Asia,Asia,
909,2006,26/01/2006,1693825986,1,naguilian,PH,17.0231,121.837,26.94,Natural,Hydrological,Flood,South-Eastern Asia,Asia,4
910,2006,4/03/2006,1693826008,3,biao,PH,7.1633,125.5211,27.9,Natural,Hydrological,Flood,South-Eastern Asia,Asia,1
912,2006,3/02/2006,1693825757,2,weno,FM,7.4515,151.8468,26.97,Natural,Hydrological,Flood,Melanesia,Oceania,1
913,2006,4/06/2006,1693826009,6,krynica-zdroj,PL,49.4222,20.9594,18.15,Natural,Hydrological,Flood,Eastern Europe,Europe,
914,2006,30/06/2006,1693826010,6,milisauti,RO,47.7833,26,16.81,Natural,Hydrological,Flood,Eastern Europe,Europe,30
915,2006,20/04/2006,1693826010,4,bilibino,RU,68.0546,166.4372,0.58,Natural,Geophysical,Earthquake,Eastern Europe,Europe,
916,2006,21/04/2006,1693826010,4,onguday,RU,50.75,86.15,15.8,Natural,Hydrological,Flood,Eastern Europe,Europe,
917,2006,12/07/2006,1693826011,7,kyakhta,RU,50.3508,106.4494,19.46,Natural,Hydrological,Flood,Eastern Europe,Europe,
918,2006,28/11/2006,1693825957,11,bunia,CD,1.5667,30.25,24.72,Natural,Hydrological,Landslide,Eastern Africa,Africa,24
905,2006,28/07/2006,1693825952,7,ozar,IN,20.1,73.9333,26.42,Natural,Hydrological,Flood,Southern Asia,Asia,
911,2006,2/08/2006,1693826009,8,zhanjiang,CN,21.2815,110.3427,27.83,Natural,Meteorological,Storm,South-Eastern Asia,Asia,6
850,2006,26/10/2006,1693825989,10,kuliyapitiya,LK,7.4688,80.0401,25.18,Natural,Hydrological,Flood,Southern Asia,Asia,25
716,2006,6/10/2006,1693825886,10,gejiu,CN,23.306,103.1635,15.06,Natural,Hydrological,Flood,Eastern Asia,Asia,27
735,2006,28/03/2006,1693825952,3,skutec,CZ,49.8435,15.9966,21.77,Natural,Hydrological,Flood,Eastern Europe,Europe,6
736,2006,28/03/2006,1693825952,3,skutec,CZ,49.8435,15.9966,21.77,Natural,Hydrological,Flood,Western Europe,Europe,
737,2006,15/04/2006,1693825954,4,kutaisi,GE,42.2496,42.6997,28.43,Natural,Hydrological,Flood,Western Asia,Asia,
738,2006,30/03/2006,1693825955,3,xiongzhou,CN,25.1167,114.3,25.8,Natural,Meteorological,Storm,Australia and New Zealand,Oceania,
739,2006,12/06/2006,1693825664,6,anshun,CN,26.25,105.9333,20.14,Natural,Hydrological,Flood,Eastern Asia,Asia,50
740,2006,9/01/2006,1693825734,1,shantou,CN,23.3681,116.7148,24.88,Natural,Meteorological,Storm,Australia and New Zealand,Oceania,
741,2006,20/03/2006,1693825873,3,saipan,MP,15.1355,145.701,28.39,Natural,Meteorological,Storm,Australia and New Zealand,Oceania,
742,2006,18/09/2006,1693825956,9,gudari,IN,19.35,83.7833,27.34,Natural,Meteorological,Storm,Southern Asia,Asia,115
743,2006,29/01/2006,1693825949,1,mejit,MH,10.2753,170.8646,28.15,Natural,Meteorological,Storm,Melanesia,Oceania,
744,2006,18/09/2006,1693825956,9,gudari,IN,19.35,83.7833,27.34,Natural,Meteorological,Storm,Southern Asia,Asia,114
745,2006,5/04/2006,1693825956,4,kayangel,PW,8.0823,134.7173,28.23,Natural,Hydrological,Flood,Australia and New Zealand,Oceania,
747,2006,24/08/2006,1693825957,8,jessore,BD,23.1687,89.2132,27.18,Natural,Hydrological,Flood,Southern Asia,Asia,
734,2006,30/05/2006,1693825953,5,jian'ou,CN,27.0469,118.3253,25.06,Natural,Hydrological,Flood,Eastern Asia,Asia,57
748,2006,20/02/2006,1693825957,2,kardzhali,BG,41.65,25.3667,23.19,Natural,Geophysical,Earthquake,Eastern Europe,Europe,
750,2006,25/03/2006,1693825958,3,hobyo,SO,5.3505,48.5268,28.16,Natural,Hydrological,Flood,South America,Americas,8
751,2006,18/04/2006,1693825958,4,shubarkuduk,KZ,49.1447,56.4872,23.85,Natural,Hydrological,Flood,Northern America,Americas,
752,2006,12/04/2006,1693825959,4,tulun,RU,54.5611,100.5792,19,Natural,Hydrological,Flood,Northern America,Americas,
753,2006,26/05/2006,1693825959,5,tura,IN,25.5198,90.2201,28.57,Natural,Hydrological,Flood,Northern America,Americas,
754,2006,20/05/2006,1693825959,5,murun-kuren,MN,49.6342,100.1625,21.12,Natural,Hydrological,Flood,Northern America,Americas,1
755,2006,26/07/2006,1693825959,7,basse-nendaz,CH,46.1899,7.3121,25.91,Natural,Hydrological,Flood,Western Europe,Europe,
756,2006,12/01/2006,1693825960,1,jianshui,CN,23.6363,102.8264,20.15,Natural,Geophysical,Earthquake,Eastern Asia,Asia,
757,2006,22/07/2006,1693825852,7,xunchang,CN,28.4543,104.715,27.44,Natural,Geophysical,Earthquake,Eastern Asia,Asia,22
758,2006,20/06/2006,1693825961,6,guangyuan,CN,32.442,105.823,26.55,Natural,Geophysical,Earthquake,Eastern Asia,Asia,
759,2006,27/10/2006,1693825961,10,suizhou,CN,31.7111,113.3631,25.33,Natural,Geophysical,Earthquake,Eastern Asia,Asia,
760,2006,3/11/2006,1693825841,11,chifeng,CN,42.2683,118.9636,22.92,Natural,Geophysical,Earthquake,Eastern Asia,Asia,
761,2006,20/07/2006,1693825961,7,longquan,CN,24.6719,102.1613,21.52,Natural,Hydrological,Flood,Eastern Asia,Asia,35
749,2006,27/01/2006,1693825958,1,afif,SA,23.9065,42.9172,38.7,Natural,Hydrological,Flood,South America,Americas,12
733,2006,22/04/2006,1693825953,4,shipunovo,RU,52.1582,82.2173,24.61,Natural,Hydrological,Flood,Northern America,Americas,
732,2006,3/08/2006,1693825953,8,ayorou,NE,14.7308,0.9174,33.17,Natural,Hydrological,Flood,Western Africa,Africa,
731,2006,28/03/2006,1693825952,3,skutec,CZ,49.8435,15.9966,21.77,Natural,Hydrological,Flood,Western Europe,Europe,
693,2006,19/05/2006,1693825939,5,fayroz koh,AF,34.5195,65.2509,24.83,Natural,Hydrological,Flood,Southern Asia,Asia,21
694,2006,9/07/2006,1693825939,7,khost,AF,33.3395,69.9204,32.61,Natural,Hydrological,Flood,Southern Asia,Asia,10
695,2006,30/07/2006,1693825940,7,hukumati azrah,AF,34.1736,69.6457,24.81,Natural,Hydrological,Flood,Southern Asia,Asia,54
704,2006,28/06/2006,1693825944,6,tongshan,CN,34.1805,117.1571,24.75,Natural,Hydrological,Flood,Eastern Asia,Asia,30
705,2006,18/05/2006,1693825945,5,rong'an,CN,26.1247,119.1214,24.33,Natural,Meteorological,Storm,Eastern Asia,Asia,23
706,2006,24/07/2006,1693825903,7,sanming,CN,26.2486,117.6186,25.32,Natural,Meteorological,Storm,Eastern Asia,Asia,109
707,2006,11/07/2006,1693825945,7,polyarnyy,RU,69.1989,33.4478,16.64,Natural,Hydrological,Flood,South America,Americas,18
708,2006,1/01/2006,1693825946,1,manadhoo,MV,5.7667,73.3833,28.07,Natural,Hydrological,Flood,South America,Americas,150
709,2006,8/10/2006,1693825946,10,serres,GR,41.0856,23.5497,21.87,Natural,Hydrological,Flood,Southern Europe,Europe,1
